{
"type": "FeatureCollection",
"crs": { "type": "name", "properties": { "name": "urn:ogc:def:crs:OGC:1.3:CRS84" } },
"features": [
{ "type": "Feature", "properties": { "osm_id": 21038927.0, "code": 5621.0, "fclass": "bus_stop", "name": "Marjane Drissia M6" }, "geometry": { "type": "Point", "coordinates": [ -7.595, 33.562 ] } },
{ "type": "Feature", "properties": { "osm_id": 21039195.0, "code": 5621.0, "fclass": "bus_stop", "name": "Afriquia RA" }, "geometry": { "type": "Point", "coordinates": [ -7.567, 33.38 ] } },
{ "type": "Feature", "properties": { "osm_id": 21045074.0, "code": 5621.0, "fclass": "bus_stop", "name": "Usine de Thé" }, "geometry": { "type": "Point", "coordinates": [ -7.516, 33.601 ] } },
{ "type": "Feature", "properties": { "osm_id": 21045148.0, "code": 5621.0, "fclass": "bus_stop", "name": "Aeropol" }, "geometry": { "type": "Point", "coordinates": [ -7.567, 33.373 ] } },
{ "type": "Feature", "properties": { "osm_id": 21450897.0, "code": 5621.0, "fclass": "bus_stop", "name": "Rue Melilia زنقة مليلية" }, "geometry": { "type": "Point", "coordinates": [ -6.831, 34.023 ] } },
{ "type": "Feature", "properties": { "osm_id": 25752374.0, "code": 5621.0, "fclass": "bus_stop", "name": "ISTAHT Mohammedia" }, "geometry": { "type": "Point", "coordinates": [ -7.357, 33.705 ] } },
{ "type": "Feature", "properties": { "osm_id": 26268470.0, "code": 5621.0, "fclass": "bus_stop", "name": "Sakani" }, "geometry": { "type": "Point", "coordinates": [ -7.482, 33.604 ] } },
{ "type": "Feature", "properties": { "osm_id": 27652229.0, "code": 5621.0, "fclass": "bus_stop", "name": "Beaugosse" }, "geometry": { "type": "Point", "coordinates": [ -5.547, 33.9 ] } },
{ "type": "Feature", "properties": { "osm_id": 62098812.0, "code": 5661.0, "fclass": "ferry_terminal", "name": "Tanger Ville" }, "geometry": { "type": "Point", "coordinates": [ -5.804, 35.79 ] } },
{ "type": "Feature", "properties": { "osm_id": 240947699.0, "code": 5661.0, "fclass": "ferry_terminal", "name": null }, "geometry": null },
{ "type": "Feature", "properties": { "osm_id": 260152119.0, "code": 5621.0, "fclass": "bus_stop", "name": null }, "geometry": { "type": "Point", "coordinates": [ -4.974, 34.055 ] } },
{ "type": "Feature", "properties": { "osm_id": 260152137.0, "code": 5621.0, "fclass": "bus_stop", "name": null }, "geometry": { "type": "Point", "coordinates": [ -4.972, 34.06 ] } },
{ "type": "Feature", "properties": { "osm_id": 279302232.0, "code": 5621.0, "fclass": "bus_stop", "name": "Résidence El Hamd" }, "geometry": { "type": "Point", "coordinates": [ -7.543, 33.557 ] } },
{ "type": "Feature", "properties": { "osm_id": 288084286.0, "code": 5651.0, "fclass": "airport", "name": "Cherif El Idrissi مطار الحسيمة الشريف الإدريسي" }, "geometry": { "type": "Point", "coordinates": [ -3.841, 35.179 ] } },
{ "type": "Feature", "properties": { "osm_id": 288209978.0, "code": 5621.0, "fclass": "bus_stop", "name": null }, "geometry": { "type": "Point", "coordinates": [ -5.297, 35.902 ] } },
{ "type": "Feature", "properties": { "osm_id": 309968360.0, "code": 5622.0, "fclass": "bus_station", "name": "Gare Supratours" }, "geometry": { "type": "Point", "coordinates": [ -9.767, 31.511 ] } },
{ "type": "Feature", "properties": { "osm_id": 309969139.0, "code": 5622.0, "fclass": "bus_station", "name": "Grand Taxis" }, "geometry": { "type": "Point", "coordinates": [ -7.997, 31.637 ] } },
{ "type": "Feature", "properties": { "osm_id": 310263692.0, "code": 5622.0, "fclass": "bus_station", "name": "Gare Supratours محطة سوبراتور" }, "geometry": { "type": "Point", "coordinates": [ -8.019, 31.63 ] } },
{ "type": "Feature", "properties": { "osm_id": 319791271.0, "code": 5661.0, "fclass": "ferry_terminal", "name": null }, "geometry": null },
{ "type": "Feature", "properties": { "osm_id": 330347079.0, "code": 5621.0, "fclass": "bus_stop", "name": "Faculté (Mohammedia)" }, "geometry": { "type": "Point", "coordinates": [ -7.375, 33.702 ] } },
{ "type": "Feature", "properties": { "osm_id": 332056637.0, "code": 5621.0, "fclass": "bus_stop", "name": "Moulay Thami" }, "geometry": { "type": "Point", "coordinates": [ -7.812, 33.49 ] } },
{ "type": "Feature", "properties": { "osm_id": 332057865.0, "code": 5621.0, "fclass": "bus_stop", "name": "Groupe Scolaire La Fourmilière" }, "geometry": { "type": "Point", "coordinates": [ -7.665, 33.581 ] } },
{ "type": "Feature", "properties": { "osm_id": 332058399.0, "code": 5621.0, "fclass": "bus_stop", "name": "Mosquée Tamaris" }, "geometry": { "type": "Point", "coordinates": [ -7.867, 33.499 ] } },
{ "type": "Feature", "properties": { "osm_id": 332063285.0, "code": 5621.0, "fclass": "bus_stop", "name": "Angle Sidi Abderrahmane/Boutaleb" }, "geometry": { "type": "Point", "coordinates": [ -7.7, 33.571 ] } },
{ "type": "Feature", "properties": { "osm_id": 332063371.0, "code": 5621.0, "fclass": "bus_stop", "name": "Morocco Mall" }, "geometry": { "type": "Point", "coordinates": [ -7.704, 33.578 ] } },
{ "type": "Feature", "properties": { "osm_id": 332068934.0, "code": 5621.0, "fclass": "bus_stop", "name": "Le Pacha" }, "geometry": { "type": "Point", "coordinates": [ -7.629, 33.564 ] } },
{ "type": "Feature", "properties": { "osm_id": 332202617.0, "code": 5621.0, "fclass": "bus_stop", "name": "ESITH" }, "geometry": { "type": "Point", "coordinates": [ -7.662, 33.539 ] } },
{ "type": "Feature", "properties": { "osm_id": 332478236.0, "code": 5621.0, "fclass": "bus_stop", "name": "Marché Central" }, "geometry": { "type": "Point", "coordinates": [ -5.551, 33.899 ] } },
{ "type": "Feature", "properties": { "osm_id": 334649216.0, "code": 5621.0, "fclass": "bus_stop", "name": "Consulat Espagne" }, "geometry": { "type": "Point", "coordinates": [ -7.625, 33.591 ] } },
{ "type": "Feature", "properties": { "osm_id": 353111101.0, "code": 5621.0, "fclass": "bus_stop", "name": "Centro de Salud - Polavieja" }, "geometry": { "type": "Point", "coordinates": [ -2.942, 35.283 ] } },
{ "type": "Feature", "properties": { "osm_id": 354977787.0, "code": 5641.0, "fclass": "taxi", "name": null }, "geometry": { "type": "Point", "coordinates": [ -2.941, 35.294 ] } },
{ "type": "Feature", "properties": { "osm_id": 356264289.0, "code": 5621.0, "fclass": "bus_stop", "name": "C/ F. Rettschlag con C/ Pegaso" }, "geometry": { "type": "Point", "coordinates": [ -2.958, 35.297 ] } },
{ "type": "Feature", "properties": { "osm_id": 361156743.0, "code": 5621.0, "fclass": "bus_stop", "name": "Pza. Martín de Córdoba" }, "geometry": { "type": "Point", "coordinates": [ -2.949, 35.29 ] } },
{ "type": "Feature", "properties": { "osm_id": 366632481.0, "code": 5621.0, "fclass": "bus_stop", "name": "Centro Penitenciario" }, "geometry": { "type": "Point", "coordinates": [ -2.944, 35.3 ] } },
{ "type": "Feature", "properties": { "osm_id": 370041547.0, "code": 5621.0, "fclass": "bus_stop", "name": "General Astilleros - Hospital Militar" }, "geometry": { "type": "Point", "coordinates": [ -2.941, 35.281 ] } },
{ "type": "Feature", "properties": { "osm_id": 370057035.0, "code": 5621.0, "fclass": "bus_stop", "name": "Inst. Enrique Nieto" }, "geometry": { "type": "Point", "coordinates": [ -2.951, 35.287 ] } },
{ "type": "Feature", "properties": { "osm_id": 370363656.0, "code": 5621.0, "fclass": "bus_stop", "name": "J. Guerrero con E. Nieto" }, "geometry": { "type": "Point", "coordinates": [ -2.948, 35.3 ] } },
{ "type": "Feature", "properties": { "osm_id": 371558655.0, "code": 5621.0, "fclass": "bus_stop", "name": "Acima" }, "geometry": { "type": "Point", "coordinates": [ -5.808, 35.779 ] } },
{ "type": "Feature", "properties": { "osm_id": 388518138.0, "code": 5661.0, "fclass": "ferry_terminal", "name": "الغزوات" }, "geometry": null },
{ "type": "Feature", "properties": { "osm_id": 408425279.0, "code": 5621.0, "fclass": "bus_stop", "name": "Lycée Lahlou" }, "geometry": { "type": "Point", "coordinates": [ -7.622, 33.572 ] } },
{ "type": "Feature", "properties": { "osm_id": 409089229.0, "code": 5621.0, "fclass": "bus_stop", "name": "Cité de l'Air" }, "geometry": { "type": "Point", "coordinates": [ -7.665, 33.57 ] } },
{ "type": "Feature", "properties": { "osm_id": 419780067.0, "code": 5651.0, "fclass": "airport", "name": "Base aérienne Ben Guerir ⴰⵍⵓⴳⵏ ⴰⴳⵏⵡⴰⵏ ⵏ ⴱⵏⴳⵔⵉⵔ قاعدة بن" }, "geometry": { "type": "Point", "coordinates": [ -7.89, 32.125 ] } },
{ "type": "Feature", "properties": { "osm_id": 424011207.0, "code": 5621.0, "fclass": "bus_stop", "name": "École Fahd Ibn Abdelaziz" }, "geometry": { "type": "Point", "coordinates": [ -5.793, 35.768 ] } },
{ "type": "Feature", "properties": { "osm_id": 424019040.0, "code": 5621.0, "fclass": "bus_stop", "name": "Place Mozart" }, "geometry": { "type": "Point", "coordinates": [ -5.796, 35.772 ] } },
{ "type": "Feature", "properties": { "osm_id": 424048318.0, "code": 5621.0, "fclass": "bus_stop", "name": "Les Arènes" }, "geometry": { "type": "Point", "coordinates": [ -7.64, 33.59 ] } },
{ "type": "Feature", "properties": { "osm_id": 424052421.0, "code": 5621.0, "fclass": "bus_stop", "name": "Lycée Ziriab" }, "geometry": { "type": "Point", "coordinates": [ -7.652, 33.581 ] } },
{ "type": "Feature", "properties": { "osm_id": 424092786.0, "code": 5621.0, "fclass": "bus_stop", "name": "APAEI" }, "geometry": { "type": "Point", "coordinates": [ -7.632, 33.581 ] } },
{ "type": "Feature", "properties": { "osm_id": 424092789.0, "code": 5621.0, "fclass": "bus_stop", "name": "Ibn Chahid" }, "geometry": { "type": "Point", "coordinates": [ -7.633, 33.579 ] } },
{ "type": "Feature", "properties": { "osm_id": 424093251.0, "code": 5621.0, "fclass": "bus_stop", "name": "Consulat de Russie" }, "geometry": { "type": "Point", "coordinates": [ -7.63, 33.578 ] } },
{ "type": "Feature", "properties": { "osm_id": 428467762.0, "code": 5621.0, "fclass": "bus_stop", "name": "Cour d'Appel" }, "geometry": { "type": "Point", "coordinates": [ -7.603, 33.596 ] } },
{ "type": "Feature", "properties": { "osm_id": 428473247.0, "code": 5621.0, "fclass": "bus_stop", "name": "Quartier Hôpitaux" }, "geometry": { "type": "Point", "coordinates": [ -7.624, 33.577 ] } },
{ "type": "Feature", "properties": { "osm_id": 428474227.0, "code": 5621.0, "fclass": "bus_stop", "name": "Marché des Fleurs" }, "geometry": { "type": "Point", "coordinates": [ -7.62, 33.583 ] } },
{ "type": "Feature", "properties": { "osm_id": 428476505.0, "code": 5621.0, "fclass": "bus_stop", "name": "Lycée Mohammed V" }, "geometry": { "type": "Point", "coordinates": [ -7.615, 33.579 ] } },
{ "type": "Feature", "properties": { "osm_id": 428476632.0, "code": 5621.0, "fclass": "bus_stop", "name": "Mosquée El Hoda" }, "geometry": { "type": "Point", "coordinates": [ -7.612, 33.57 ] } },
{ "type": "Feature", "properties": { "osm_id": 428587309.0, "code": 5621.0, "fclass": "bus_stop", "name": "OFPPT Bahmad" }, "geometry": { "type": "Point", "coordinates": [ -7.594, 33.588 ] } },
{ "type": "Feature", "properties": { "osm_id": 428612131.0, "code": 5621.0, "fclass": "bus_stop", "name": "Derb Milan" }, "geometry": { "type": "Point", "coordinates": [ -7.581, 33.571 ] } },
{ "type": "Feature", "properties": { "osm_id": 428617471.0, "code": 5621.0, "fclass": "bus_stop", "name": "Groupe 4 Moulay Rachid" }, "geometry": { "type": "Point", "coordinates": [ -7.538, 33.568 ] } },
{ "type": "Feature", "properties": { "osm_id": 428617477.0, "code": 5621.0, "fclass": "bus_stop", "name": "Forêt Verte" }, "geometry": { "type": "Point", "coordinates": [ -7.534, 33.569 ] } },
{ "type": "Feature", "properties": { "osm_id": 428625808.0, "code": 5621.0, "fclass": "bus_stop", "name": "Dior Chaâbi" }, "geometry": { "type": "Point", "coordinates": [ -7.551, 33.597 ] } },
{ "type": "Feature", "properties": { "osm_id": 428625814.0, "code": 5621.0, "fclass": "bus_stop", "name": "Carr. Zaraba" }, "geometry": { "type": "Point", "coordinates": [ -7.557, 33.595 ] } },
{ "type": "Feature", "properties": { "osm_id": 428638620.0, "code": 5621.0, "fclass": "bus_stop", "name": "Angle Rue des Pommes d'Or/Panoramique" }, "geometry": { "type": "Point", "coordinates": [ -7.621, 33.55 ] } },
{ "type": "Feature", "properties": { "osm_id": 428928544.0, "code": 5621.0, "fclass": "bus_stop", "name": "Usine Briq. RGE" }, "geometry": { "type": "Point", "coordinates": [ -7.356, 33.664 ] } },
{ "type": "Feature", "properties": { "osm_id": 428932530.0, "code": 5621.0, "fclass": "bus_stop", "name": "Espace La Pause" }, "geometry": { "type": "Point", "coordinates": [ -7.572, 33.562 ] } },
{ "type": "Feature", "properties": { "osm_id": 429316353.0, "code": 5621.0, "fclass": "bus_stop", "name": "Terminus Daouliz" }, "geometry": { "type": "Point", "coordinates": [ -7.659, 33.603 ] } },
{ "type": "Feature", "properties": { "osm_id": 429316559.0, "code": 5621.0, "fclass": "bus_stop", "name": "Clinique Ben Souda" }, "geometry": { "type": "Point", "coordinates": [ -7.652, 33.586 ] } },
{ "type": "Feature", "properties": { "osm_id": 429317114.0, "code": 5621.0, "fclass": "bus_stop", "name": "OFPPT El Hank" }, "geometry": { "type": "Point", "coordinates": [ -7.647, 33.603 ] } },
{ "type": "Feature", "properties": { "osm_id": 444379304.0, "code": 5622.0, "fclass": "bus_station", "name": null }, "geometry": { "type": "Point", "coordinates": [ -6.802, 34.036 ] } },
{ "type": "Feature", "properties": { "osm_id": 446815128.0, "code": 5621.0, "fclass": "bus_stop", "name": null }, "geometry": { "type": "Point", "coordinates": [ -5.986, 31.373 ] } },
{ "type": "Feature", "properties": { "osm_id": 455153529.0, "code": 5621.0, "fclass": "bus_stop", "name": "Caracolas" }, "geometry": { "type": "Point", "coordinates": [ -2.951, 35.271 ] } },
{ "type": "Feature", "properties": { "osm_id": 455457741.0, "code": 5621.0, "fclass": "bus_stop", "name": "Chemicals El Madina" }, "geometry": { "type": "Point", "coordinates": [ -7.454, 33.547 ] } },
{ "type": "Feature", "properties": { "osm_id": 455457746.0, "code": 5621.0, "fclass": "bus_stop", "name": "Dar El Baroud" }, "geometry": { "type": "Point", "coordinates": [ -7.447, 33.546 ] } },
{ "type": "Feature", "properties": { "osm_id": 455457751.0, "code": 5621.0, "fclass": "bus_stop", "name": "Centre Social (TM)" }, "geometry": { "type": "Point", "coordinates": [ -7.44, 33.543 ] } },
{ "type": "Feature", "properties": { "osm_id": 455457753.0, "code": 5621.0, "fclass": "bus_stop", "name": "Château D Eau Tit Mellil" }, "geometry": { "type": "Point", "coordinates": [ -7.434, 33.541 ] } },
{ "type": "Feature", "properties": { "osm_id": 455489570.0, "code": 5621.0, "fclass": "bus_stop", "name": "Ain Sbaâ" }, "geometry": { "type": "Point", "coordinates": [ -7.535, 33.614 ] } },
{ "type": "Feature", "properties": { "osm_id": 455500366.0, "code": 5621.0, "fclass": "bus_stop", "name": "Âin Harrouda Centre" }, "geometry": { "type": "Point", "coordinates": [ -7.452, 33.635 ] } },
{ "type": "Feature", "properties": { "osm_id": 455500473.0, "code": 5621.0, "fclass": "bus_stop", "name": "Groupe Scolaire Kamel" }, "geometry": { "type": "Point", "coordinates": [ -7.491, 33.615 ] } },
{ "type": "Feature", "properties": { "osm_id": 455500484.0, "code": 5621.0, "fclass": "bus_stop", "name": "Mansouria" }, "geometry": { "type": "Point", "coordinates": [ -7.479, 33.619 ] } },
{ "type": "Feature", "properties": { "osm_id": 455502211.0, "code": 5621.0, "fclass": "bus_stop", "name": "Groupe Scolaire Elbayda" }, "geometry": { "type": "Point", "coordinates": [ -7.485, 33.621 ] } },
{ "type": "Feature", "properties": { "osm_id": 455730462.0, "code": 5621.0, "fclass": "bus_stop", "name": "Royal Golf Anfa" }, "geometry": { "type": "Point", "coordinates": [ -7.658, 33.584 ] } },
{ "type": "Feature", "properties": { "osm_id": 456479907.0, "code": 5621.0, "fclass": "bus_stop", "name": "Oliverie" }, "geometry": { "type": "Point", "coordinates": [ -7.641, 33.586 ] } },
{ "type": "Feature", "properties": { "osm_id": 456510091.0, "code": 5621.0, "fclass": "bus_stop", "name": "Derb Foukara" }, "geometry": { "type": "Point", "coordinates": [ -7.608, 33.566 ] } },
{ "type": "Feature", "properties": { "osm_id": 456519354.0, "code": 5621.0, "fclass": "bus_stop", "name": "Bni M'guild" }, "geometry": { "type": "Point", "coordinates": [ -7.605, 33.571 ] } },
{ "type": "Feature", "properties": { "osm_id": 456526084.0, "code": 5621.0, "fclass": "bus_stop", "name": "Sorexi" }, "geometry": { "type": "Point", "coordinates": [ -7.589, 33.589 ] } },
{ "type": "Feature", "properties": { "osm_id": 456526092.0, "code": 5621.0, "fclass": "bus_stop", "name": "École Le Nid" }, "geometry": { "type": "Point", "coordinates": [ -7.586, 33.587 ] } },
{ "type": "Feature", "properties": { "osm_id": 456529890.0, "code": 5621.0, "fclass": "bus_stop", "name": "Hay Mabrouka" }, "geometry": { "type": "Point", "coordinates": [ -7.567, 33.566 ] } },
{ "type": "Feature", "properties": { "osm_id": 457854022.0, "code": 5621.0, "fclass": "bus_stop", "name": "Moutana Ibn Harita" }, "geometry": { "type": "Point", "coordinates": [ -7.509, 33.605 ] } },
{ "type": "Feature", "properties": { "osm_id": 457930600.0, "code": 5621.0, "fclass": "bus_stop", "name": "Café Gattoss" }, "geometry": { "type": "Point", "coordinates": [ -7.483, 33.623 ] } },
{ "type": "Feature", "properties": { "osm_id": 458736828.0, "code": 5621.0, "fclass": "bus_stop", "name": "Kodia" }, "geometry": { "type": "Point", "coordinates": [ -7.557, 33.586 ] } },
{ "type": "Feature", "properties": { "osm_id": 458761367.0, "code": 5621.0, "fclass": "bus_stop", "name": "Cté Police Bernoussi" }, "geometry": { "type": "Point", "coordinates": [ -7.52, 33.603 ] } },
{ "type": "Feature", "properties": { "osm_id": 458761729.0, "code": 5621.0, "fclass": "bus_stop", "name": "Oulmess" }, "geometry": { "type": "Point", "coordinates": [ -7.648, 33.572 ] } },
{ "type": "Feature", "properties": { "osm_id": 458761792.0, "code": 5621.0, "fclass": "bus_stop", "name": "Café Kairaouan" }, "geometry": { "type": "Point", "coordinates": [ -7.675, 33.56 ] } },
{ "type": "Feature", "properties": { "osm_id": 459446230.0, "code": 5621.0, "fclass": "bus_stop", "name": "Droguerie Dakhla" }, "geometry": { "type": "Point", "coordinates": [ -7.686, 33.545 ] } },
{ "type": "Feature", "properties": { "osm_id": 459446235.0, "code": 5621.0, "fclass": "bus_stop", "name": "Zoubir" }, "geometry": { "type": "Point", "coordinates": [ -7.683, 33.541 ] } },
{ "type": "Feature", "properties": { "osm_id": 459460393.0, "code": 5621.0, "fclass": "bus_stop", "name": "Commissariat Azhar" }, "geometry": { "type": "Point", "coordinates": [ -7.492, 33.603 ] } },
{ "type": "Feature", "properties": { "osm_id": 459487392.0, "code": 5621.0, "fclass": "bus_stop", "name": "Bournazel" }, "geometry": { "type": "Point", "coordinates": [ -7.558, 33.57 ] } },
{ "type": "Feature", "properties": { "osm_id": 459488695.0, "code": 5621.0, "fclass": "bus_stop", "name": "Résidences Salma" }, "geometry": { "type": "Point", "coordinates": [ -7.555, 33.549 ] } },
{ "type": "Feature", "properties": { "osm_id": 459703621.0, "code": 5621.0, "fclass": "bus_stop", "name": "H.E.M." }, "geometry": { "type": "Point", "coordinates": [ -7.622, 33.531 ] } },
{ "type": "Feature", "properties": { "osm_id": 459751806.0, "code": 5621.0, "fclass": "bus_stop", "name": "Café Grill Antik" }, "geometry": { "type": "Point", "coordinates": [ -7.616, 33.532 ] } },
{ "type": "Feature", "properties": { "osm_id": 459773155.0, "code": 5621.0, "fclass": "bus_stop", "name": "Centre Feminin" }, "geometry": { "type": "Point", "coordinates": [ -7.602, 33.562 ] } },
{ "type": "Feature", "properties": { "osm_id": 459996464.0, "code": 5621.0, "fclass": "bus_stop", "name": "Carrefour" }, "geometry": { "type": "Point", "coordinates": [ -7.645, 33.574 ] } },
{ "type": "Feature", "properties": { "osm_id": 460013217.0, "code": 5621.0, "fclass": "bus_stop", "name": "École Frères Safa" }, "geometry": { "type": "Point", "coordinates": [ -7.584, 33.552 ] } },
{ "type": "Feature", "properties": { "osm_id": 460013658.0, "code": 5621.0, "fclass": "bus_stop", "name": "Doha" }, "geometry": { "type": "Point", "coordinates": [ -7.518, 33.591 ] } },
{ "type": "Feature", "properties": { "osm_id": 460021258.0, "code": 5621.0, "fclass": "bus_stop", "name": "Oued Nassim" }, "geometry": { "type": "Point", "coordinates": [ -7.665, 33.521 ] } },
{ "type": "Feature", "properties": { "osm_id": 460021271.0, "code": 5621.0, "fclass": "bus_stop", "name": "Mosquée Nassim" }, "geometry": { "type": "Point", "coordinates": [ -7.662, 33.52 ] } },
{ "type": "Feature", "properties": { "osm_id": 460028053.0, "code": 5621.0, "fclass": "bus_stop", "name": "Hammam Nekhla" }, "geometry": { "type": "Point", "coordinates": [ -7.653, 33.569 ] } },
{ "type": "Feature", "properties": { "osm_id": 460028115.0, "code": 5621.0, "fclass": "bus_stop", "name": "Khozama" }, "geometry": { "type": "Point", "coordinates": [ -7.675, 33.536 ] } },
{ "type": "Feature", "properties": { "osm_id": 474996258.0, "code": 5621.0, "fclass": "bus_stop", "name": "Clinique Val Anfa" }, "geometry": { "type": "Point", "coordinates": [ -7.653, 33.59 ] } },
{ "type": "Feature", "properties": { "osm_id": 480675428.0, "code": 5621.0, "fclass": "bus_stop", "name": "Frontera Benienzar" }, "geometry": { "type": "Point", "coordinates": [ -2.935, 35.271 ] } },
{ "type": "Feature", "properties": { "osm_id": 485910991.0, "code": 5601.0, "fclass": "railway_station", "name": "Bouskoura" }, "geometry": { "type": "Point", "coordinates": [ -7.652, 33.461 ] } },
{ "type": "Feature", "properties": { "osm_id": 485940044.0, "code": 5601.0, "fclass": "railway_station", "name": "Ennassim" }, "geometry": { "type": "Point", "coordinates": [ -7.658, 33.518 ] } },
{ "type": "Feature", "properties": { "osm_id": 485949418.0, "code": 5601.0, "fclass": "railway_station", "name": "Mers Sultan" }, "geometry": { "type": "Point", "coordinates": [ -7.609, 33.57 ] } },
{ "type": "Feature", "properties": { "osm_id": 485952362.0, "code": 5601.0, "fclass": "railway_station", "name": "Mohammed V" }, "geometry": { "type": "Point", "coordinates": [ -7.579, 33.374 ] } },
{ "type": "Feature", "properties": { "osm_id": 535988842.0, "code": 5641.0, "fclass": "taxi", "name": "Grands Taxis" }, "geometry": { "type": "Point", "coordinates": [ -5.802, 35.772 ] } },
{ "type": "Feature", "properties": { "osm_id": 542729229.0, "code": 5621.0, "fclass": "bus_stop", "name": "Gendarmerie Royale" }, "geometry": { "type": "Point", "coordinates": [ -5.538, 33.9 ] } },
{ "type": "Feature", "properties": { "osm_id": 543979599.0, "code": 5621.0, "fclass": "bus_stop", "name": "Sidi Said" }, "geometry": { "type": "Point", "coordinates": [ -5.578, 33.891 ] } },
{ "type": "Feature", "properties": { "osm_id": 552065249.0, "code": 5622.0, "fclass": "bus_station", "name": null }, "geometry": { "type": "Point", "coordinates": [ -6.151, 35.196 ] } },
{ "type": "Feature", "properties": { "osm_id": 566450739.0, "code": 5621.0, "fclass": "bus_stop", "name": null }, "geometry": { "type": "Point", "coordinates": [ -5.319, 35.89 ] } },
{ "type": "Feature", "properties": { "osm_id": 566450850.0, "code": 5622.0, "fclass": "bus_station", "name": "Gare Routière" }, "geometry": { "type": "Point", "coordinates": [ -5.371, 35.56 ] } },
{ "type": "Feature", "properties": { "osm_id": 566450850.0, "code": 5621.0, "fclass": "bus_stop", "name": "Gare Routière" }, "geometry": { "type": "Point", "coordinates": [ -5.371, 35.56 ] } },
{ "type": "Feature", "properties": { "osm_id": 595776472.0, "code": 5641.0, "fclass": "taxi", "name": null }, "geometry": { "type": "Point", "coordinates": [ -8.973, 29.721 ] } },
{ "type": "Feature", "properties": { "osm_id": 595776473.0, "code": 5621.0, "fclass": "bus_stop", "name": null }, "geometry": { "type": "Point", "coordinates": [ -8.974, 29.722 ] } },
{ "type": "Feature", "properties": { "osm_id": 599316558.0, "code": 5641.0, "fclass": "taxi", "name": null }, "geometry": { "type": "Point", "coordinates": [ -9.41, 30.331 ] } },
{ "type": "Feature", "properties": { "osm_id": 622178177.0, "code": 5621.0, "fclass": "bus_stop", "name": null }, "geometry": { "type": "Point", "coordinates": [ -4.479, 32.021 ] } },
{ "type": "Feature", "properties": { "osm_id": 622472506.0, "code": 5641.0, "fclass": "taxi", "name": "grand taxi" }, "geometry": { "type": "Point", "coordinates": [ -5.839, 30.331 ] } },
{ "type": "Feature", "properties": { "osm_id": 622472511.0, "code": 5621.0, "fclass": "bus_stop", "name": "ctm" }, "geometry": { "type": "Point", "coordinates": [ -5.84, 30.325 ] } },
{ "type": "Feature", "properties": { "osm_id": 622478747.0, "code": 5621.0, "fclass": "bus_stop", "name": null }, "geometry": { "type": "Point", "coordinates": [ -6.873, 30.086 ] } },
{ "type": "Feature", "properties": { "osm_id": 622489396.0, "code": 5621.0, "fclass": "bus_stop", "name": null }, "geometry": { "type": "Point", "coordinates": [ -7.972, 29.746 ] } },
{ "type": "Feature", "properties": { "osm_id": 622576724.0, "code": 5641.0, "fclass": "taxi", "name": null }, "geometry": { "type": "Point", "coordinates": [ -5.669, 32.938 ] } },
{ "type": "Feature", "properties": { "osm_id": 635975802.0, "code": 5601.0, "fclass": "railway_station", "name": "بوناكة" }, "geometry": { "type": "Point", "coordinates": [ -7.947, 31.918 ] } },
{ "type": "Feature", "properties": { "osm_id": 635977791.0, "code": 5601.0, "fclass": "railway_station", "name": "Settat ⵙⵟⵟⴰⵜ سطات" }, "geometry": { "type": "Point", "coordinates": [ -7.624, 32.994 ] } },
{ "type": "Feature", "properties": { "osm_id": 635981864.0, "code": 5601.0, "fclass": "railway_station", "name": "جمعة العرارشة" }, "geometry": { "type": "Point", "coordinates": [ -7.957, 32.081 ] } },
{ "type": "Feature", "properties": { "osm_id": 635981870.0, "code": 5601.0, "fclass": "railway_station", "name": null }, "geometry": { "type": "Point", "coordinates": [ -7.816, 32.578 ] } },
{ "type": "Feature", "properties": { "osm_id": 647247735.0, "code": 5661.0, "fclass": "ferry_terminal", "name": "الحسيمة" }, "geometry": { "type": "Point", "coordinates": [ -3.923, 35.246 ] } },
{ "type": "Feature", "properties": { "osm_id": 651919952.0, "code": 5641.0, "fclass": "taxi", "name": "Grands taxis" }, "geometry": { "type": "Point", "coordinates": [ -5.266, 35.167 ] } },
{ "type": "Feature", "properties": { "osm_id": 659996331.0, "code": 5621.0, "fclass": "bus_stop", "name": "Pharmacie Camilia" }, "geometry": { "type": "Point", "coordinates": [ -5.829, 35.773 ] } },
{ "type": "Feature", "properties": { "osm_id": 660578091.0, "code": 5621.0, "fclass": "bus_stop", "name": "Place Djemaa Al Fnaa - Arset El Bilk" }, "geometry": { "type": "Point", "coordinates": [ -7.991, 31.624 ] } },
{ "type": "Feature", "properties": { "osm_id": 694673717.0, "code": 5602.0, "fclass": "railway_halt", "name": "Ain Taoujdate عين تاوجطات" }, "geometry": { "type": "Point", "coordinates": [ -5.214, 33.934 ] } },
{ "type": "Feature", "properties": { "osm_id": 724159119.0, "code": 5621.0, "fclass": "bus_stop", "name": "Centre Santé Bradaa" }, "geometry": { "type": "Point", "coordinates": [ -7.368, 33.698 ] } },
{ "type": "Feature", "properties": { "osm_id": 728518907.0, "code": 5621.0, "fclass": "bus_stop", "name": "Collège Yacoub Mansour" }, "geometry": { "type": "Point", "coordinates": [ -7.388, 33.682 ] } },
{ "type": "Feature", "properties": { "osm_id": 728518953.0, "code": 5621.0, "fclass": "bus_stop", "name": "Mosquée Mali" }, "geometry": { "type": "Point", "coordinates": [ -7.39, 33.687 ] } },
{ "type": "Feature", "properties": { "osm_id": 728534523.0, "code": 5621.0, "fclass": "bus_stop", "name": "Pharmacie Imane" }, "geometry": { "type": "Point", "coordinates": [ -7.391, 33.679 ] } },
{ "type": "Feature", "properties": { "osm_id": 728535729.0, "code": 5621.0, "fclass": "bus_stop", "name": "Lydec Alia" }, "geometry": { "type": "Point", "coordinates": [ -7.394, 33.677 ] } },
{ "type": "Feature", "properties": { "osm_id": 728555939.0, "code": 5621.0, "fclass": "bus_stop", "name": "Boulangerie La Volanté" }, "geometry": { "type": "Point", "coordinates": [ -7.393, 33.681 ] } },
{ "type": "Feature", "properties": { "osm_id": 728556057.0, "code": 5621.0, "fclass": "bus_stop", "name": "Pharmacie Imane" }, "geometry": { "type": "Point", "coordinates": [ -7.391, 33.679 ] } },
{ "type": "Feature", "properties": { "osm_id": 728556423.0, "code": 5621.0, "fclass": "bus_stop", "name": "Sté. Seita" }, "geometry": { "type": "Point", "coordinates": [ -7.395, 33.679 ] } },
{ "type": "Feature", "properties": { "osm_id": 728557093.0, "code": 5621.0, "fclass": "bus_stop", "name": "Lydec Alia" }, "geometry": { "type": "Point", "coordinates": [ -7.394, 33.677 ] } },
{ "type": "Feature", "properties": { "osm_id": 728591423.0, "code": 5621.0, "fclass": "bus_stop", "name": "Arrêt Tadla" }, "geometry": { "type": "Point", "coordinates": [ -7.392, 33.689 ] } },
{ "type": "Feature", "properties": { "osm_id": 760382902.0, "code": 5621.0, "fclass": "bus_stop", "name": "Tit Mellil" }, "geometry": { "type": "Point", "coordinates": [ -7.487, 33.551 ] } },
{ "type": "Feature", "properties": { "osm_id": 760382956.0, "code": 5621.0, "fclass": "bus_stop", "name": "Groupe Zina" }, "geometry": { "type": "Point", "coordinates": [ -7.478, 33.554 ] } },
{ "type": "Feature", "properties": { "osm_id": 762099478.0, "code": 5621.0, "fclass": "bus_stop", "name": "Rachidia" }, "geometry": { "type": "Point", "coordinates": [ -7.381, 33.687 ] } },
{ "type": "Feature", "properties": { "osm_id": 762123842.0, "code": 5621.0, "fclass": "bus_stop", "name": "M'Salla (Moh) 2" }, "geometry": { "type": "Point", "coordinates": [ -7.374, 33.692 ] } },
{ "type": "Feature", "properties": { "osm_id": 860436125.0, "code": 5641.0, "fclass": "taxi", "name": null }, "geometry": { "type": "Point", "coordinates": [ -4.64, 34.548 ] } },
{ "type": "Feature", "properties": { "osm_id": 909316179.0, "code": 5622.0, "fclass": "bus_station", "name": "Supratours" }, "geometry": { "type": "Point", "coordinates": [ -9.56, 30.42 ] } },
{ "type": "Feature", "properties": { "osm_id": 1016725407.0, "code": 5651.0, "fclass": "airport", "name": "Aéroport de Casablanca Tit Mellil" }, "geometry": { "type": "Point", "coordinates": [ -7.467, 33.597 ] } },
{ "type": "Feature", "properties": { "osm_id": 1020287758.0, "code": 5621.0, "fclass": "bus_stop", "name": "Ain Maàza (Lycée Al Imam Ali)" }, "geometry": { "type": "Point", "coordinates": [ -5.537, 33.884 ] } },
{ "type": "Feature", "properties": { "osm_id": 1021229973.0, "code": 5621.0, "fclass": "bus_stop", "name": "Résidence Achourouk" }, "geometry": { "type": "Point", "coordinates": [ -5.499, 33.887 ] } },
{ "type": "Feature", "properties": { "osm_id": 1025409497.0, "code": 5641.0, "fclass": "taxi", "name": "Station petit taxi" }, "geometry": { "type": "Point", "coordinates": [ -4.426, 31.931 ] } },
{ "type": "Feature", "properties": { "osm_id": 1042041424.0, "code": 5651.0, "fclass": "airport", "name": "Ouezzane Airport" }, "geometry": { "type": "Point", "coordinates": [ -5.635, 34.794 ] } },
{ "type": "Feature", "properties": { "osm_id": 1042041434.0, "code": 5651.0, "fclass": "airport", "name": "Ifrane Airport ⴰⵣⴰⴳⵯⵣ ⵏ ⵉⴼⵔⴰⵏ مطار إفران" }, "geometry": { "type": "Point", "coordinates": [ -5.161, 33.503 ] } },
{ "type": "Feature", "properties": { "osm_id": 1042041497.0, "code": 5651.0, "fclass": "airport", "name": "Aéroport Ben Slimane ⴰⵣⴰⴳⵯⵣ ⵏ ⴱⵏ ⵙⵍⵉⵎⴰⵏ مطار بن سليمان" }, "geometry": { "type": "Point", "coordinates": [ -7.221, 33.655 ] } },
{ "type": "Feature", "properties": { "osm_id": 1042041506.0, "code": 5651.0, "fclass": "airport", "name": "Aéroport Beni Mellal ⴰⵣⴰⴳⵯⵣ ⵏ ⴰⵢⵜ ⵎⵍⵍⴰⵍ مطار بني ملال" }, "geometry": { "type": "Point", "coordinates": [ -6.328, 32.395 ] } },
{ "type": "Feature", "properties": { "osm_id": 1042041514.0, "code": 5651.0, "fclass": "airport", "name": "Aéroport de Sidi Ifni مطار سيدي إيفني" }, "geometry": { "type": "Point", "coordinates": [ -10.176, 29.371 ] } },
{ "type": "Feature", "properties": { "osm_id": 1042041536.0, "code": 5651.0, "fclass": "airport", "name": "El Jadida Airport - CLOSED" }, "geometry": { "type": "Point", "coordinates": [ -8.523, 33.232 ] } },
{ "type": "Feature", "properties": { "osm_id": 1042041588.0, "code": 5651.0, "fclass": "airport", "name": "Kenitra Air Base ⴰⵍⵓⴳⵏ ⴰⴳⵏⵡⴰⵏ ⵏ ⵇⵏⵉⵟⵕⴰ قاعدة القنيطر" }, "geometry": { "type": "Point", "coordinates": [ -6.596, 34.299 ] } },
{ "type": "Feature", "properties": { "osm_id": 1042041602.0, "code": 5651.0, "fclass": "airport", "name": "Sidi Slimane Airport" }, "geometry": { "type": "Point", "coordinates": [ -6.049, 34.233 ] } },
{ "type": "Feature", "properties": { "osm_id": 1045299774.0, "code": 5601.0, "fclass": "railway_station", "name": "Gare d'El Jadida" }, "geometry": { "type": "Point", "coordinates": [ -8.511, 33.219 ] } },
{ "type": "Feature", "properties": { "osm_id": 1056404837.0, "code": 5601.0, "fclass": "railway_station", "name": "Ain Taoujdate" }, "geometry": { "type": "Point", "coordinates": [ -5.214, 33.935 ] } },
{ "type": "Feature", "properties": { "osm_id": 1092128463.0, "code": 5622.0, "fclass": "bus_station", "name": "Souk Al Had" }, "geometry": { "type": "Point", "coordinates": [ -5.408, 35.028 ] } },
{ "type": "Feature", "properties": { "osm_id": 1104663583.0, "code": 5601.0, "fclass": "railway_station", "name": "Fès-Médina" }, "geometry": { "type": "Point", "coordinates": [ -4.958, 34.062 ] } },
{ "type": "Feature", "properties": { "osm_id": 1104884043.0, "code": 5621.0, "fclass": "bus_stop", "name": "Bab Tizimi" }, "geometry": { "type": "Point", "coordinates": [ -5.564, 33.9 ] } },
{ "type": "Feature", "properties": { "osm_id": 1122269283.0, "code": 5621.0, "fclass": "bus_stop", "name": "Angle Oum Rabia/Naciri" }, "geometry": { "type": "Point", "coordinates": [ -7.669, 33.561 ] } },
{ "type": "Feature", "properties": { "osm_id": 1123540162.0, "code": 5621.0, "fclass": "bus_stop", "name": "Mosquée Ferrara" }, "geometry": { "type": "Point", "coordinates": [ -7.686, 33.555 ] } },
{ "type": "Feature", "properties": { "osm_id": 1129440771.0, "code": 5621.0, "fclass": "bus_stop", "name": "St-Vélodrome" }, "geometry": { "type": "Point", "coordinates": [ -7.646, 33.59 ] } },
{ "type": "Feature", "properties": { "osm_id": 1129440800.0, "code": 5621.0, "fclass": "bus_stop", "name": "Vélodrome" }, "geometry": { "type": "Point", "coordinates": [ -7.645, 33.588 ] } },
{ "type": "Feature", "properties": { "osm_id": 1129495637.0, "code": 5621.0, "fclass": "bus_stop", "name": "Sfax" }, "geometry": { "type": "Point", "coordinates": [ -7.611, 33.589 ] } },
{ "type": "Feature", "properties": { "osm_id": 1130779580.0, "code": 5621.0, "fclass": "bus_stop", "name": "Hassan II" }, "geometry": { "type": "Point", "coordinates": [ -7.624, 33.583 ] } },
{ "type": "Feature", "properties": { "osm_id": 1130782943.0, "code": 5621.0, "fclass": "bus_stop", "name": "Mers Sultan" }, "geometry": { "type": "Point", "coordinates": [ -7.616, 33.585 ] } },
{ "type": "Feature", "properties": { "osm_id": 1131163317.0, "code": 5655.0, "fclass": "helipad", "name": null }, "geometry": { "type": "Point", "coordinates": [ -6.736, 34.058 ] } },
{ "type": "Feature", "properties": { "osm_id": 1131163371.0, "code": 5655.0, "fclass": "helipad", "name": null }, "geometry": { "type": "Point", "coordinates": [ -6.735, 34.06 ] } },
{ "type": "Feature", "properties": { "osm_id": 1172636344.0, "code": 5661.0, "fclass": "ferry_terminal", "name": "Motril" }, "geometry": null },
{ "type": "Feature", "properties": { "osm_id": 1182616058.0, "code": 5641.0, "fclass": "taxi", "name": null }, "geometry": { "type": "Point", "coordinates": [ -9.77, 31.511 ] } },
{ "type": "Feature", "properties": { "osm_id": 1185669883.0, "code": 5641.0, "fclass": "taxi", "name": null }, "geometry": { "type": "Point", "coordinates": [ -9.54, 31.58 ] } },
{ "type": "Feature", "properties": { "osm_id": 1185669894.0, "code": 5622.0, "fclass": "bus_station", "name": null }, "geometry": { "type": "Point", "coordinates": [ -9.539, 31.58 ] } },
{ "type": "Feature", "properties": { "osm_id": 1187567327.0, "code": 5622.0, "fclass": "bus_station", "name": "Lima Bus 3 4 5 6" }, "geometry": { "type": "Point", "coordinates": [ -9.765, 31.516 ] } },
{ "type": "Feature", "properties": { "osm_id": 1187567337.0, "code": 5622.0, "fclass": "bus_station", "name": "Lima Bus 1 2" }, "geometry": { "type": "Point", "coordinates": [ -9.766, 31.516 ] } },
{ "type": "Feature", "properties": { "osm_id": 1187567338.0, "code": 5622.0, "fclass": "bus_station", "name": "Bab El Borj" }, "geometry": { "type": "Point", "coordinates": [ -9.759, 31.5 ] } },
{ "type": "Feature", "properties": { "osm_id": 1226364847.0, "code": 5641.0, "fclass": "taxi", "name": null }, "geometry": { "type": "Point", "coordinates": [ -7.675, 31.226 ] } },
{ "type": "Feature", "properties": { "osm_id": 1242055763.0, "code": 5622.0, "fclass": "bus_station", "name": "gare routiere khouribga" }, "geometry": { "type": "Point", "coordinates": [ -6.909, 32.885 ] } },
{ "type": "Feature", "properties": { "osm_id": 1242056085.0, "code": 5621.0, "fclass": "bus_stop", "name": "Palais de Justice" }, "geometry": { "type": "Point", "coordinates": [ -6.916, 32.888 ] } },
{ "type": "Feature", "properties": { "osm_id": 1242057161.0, "code": 5621.0, "fclass": "bus_stop", "name": "Incia" }, "geometry": { "type": "Point", "coordinates": [ -6.919, 32.888 ] } },
{ "type": "Feature", "properties": { "osm_id": 1242098252.0, "code": 5621.0, "fclass": "bus_stop", "name": "Portail de la Liberte" }, "geometry": { "type": "Point", "coordinates": [ -6.899, 32.877 ] } },
{ "type": "Feature", "properties": { "osm_id": 1245964366.0, "code": 5601.0, "fclass": "railway_station", "name": "Marrakech مراكش" }, "geometry": { "type": "Point", "coordinates": [ -8.017, 31.631 ] } },
{ "type": "Feature", "properties": { "osm_id": 1245964442.0, "code": 5641.0, "fclass": "taxi", "name": null }, "geometry": { "type": "Point", "coordinates": [ -8.019, 31.629 ] } },
{ "type": "Feature", "properties": { "osm_id": 1245964468.0, "code": 5641.0, "fclass": "taxi", "name": null }, "geometry": { "type": "Point", "coordinates": [ -8.017, 31.631 ] } },
{ "type": "Feature", "properties": { "osm_id": 1246704348.0, "code": 5621.0, "fclass": "bus_stop", "name": "Parc Aquatique" }, "geometry": { "type": "Point", "coordinates": [ -7.648, 33.45 ] } },
{ "type": "Feature", "properties": { "osm_id": 1261487479.0, "code": 5621.0, "fclass": "bus_stop", "name": "Pasteur" }, "geometry": { "type": "Point", "coordinates": [ -7.626, 33.574 ] } },
{ "type": "Feature", "properties": { "osm_id": 1311854956.0, "code": 5603.0, "fclass": "tram_stop", "name": "Madinat Al Irfane مدينة العرفان" }, "geometry": { "type": "Point", "coordinates": [ -6.864, 33.983 ] } },
{ "type": "Feature", "properties": { "osm_id": 1311857650.0, "code": 5603.0, "fclass": "tram_stop", "name": "Cité Universitaire Souissi الحي الجامعي السويسي" }, "geometry": { "type": "Point", "coordinates": [ -6.861, 33.986 ] } },
{ "type": "Feature", "properties": { "osm_id": 1311859342.0, "code": 5603.0, "fclass": "tram_stop", "name": "Agdal-Avenue de France أكدال-شارع فرنسا" }, "geometry": { "type": "Point", "coordinates": [ -6.849, 33.997 ] } },
{ "type": "Feature", "properties": { "osm_id": 1311859666.0, "code": 5603.0, "fclass": "tram_stop", "name": "Nations Unies الأمم المتحدة" }, "geometry": { "type": "Point", "coordinates": [ -6.844, 34.0 ] } },
{ "type": "Feature", "properties": { "osm_id": 1311863524.0, "code": 5603.0, "fclass": "tram_stop", "name": "Tour Hassan" }, "geometry": { "type": "Point", "coordinates": [ -6.827, 34.019 ] } },
{ "type": "Feature", "properties": { "osm_id": 1326431614.0, "code": 5621.0, "fclass": "bus_stop", "name": "Lotissement Saklia" }, "geometry": { "type": "Point", "coordinates": [ -7.694, 33.565 ] } },
{ "type": "Feature", "properties": { "osm_id": 1352758637.0, "code": 5655.0, "fclass": "helipad", "name": null }, "geometry": { "type": "Point", "coordinates": [ -5.714, 35.826 ] } },
{ "type": "Feature", "properties": { "osm_id": 1356504513.0, "code": 5641.0, "fclass": "taxi", "name": "tout direction" }, "geometry": { "type": "Point", "coordinates": [ -9.236, 32.29 ] } },
{ "type": "Feature", "properties": { "osm_id": 1356504522.0, "code": 5641.0, "fclass": "taxi", "name": null }, "geometry": { "type": "Point", "coordinates": [ -9.22, 32.303 ] } },
{ "type": "Feature", "properties": { "osm_id": 1356504583.0, "code": 5641.0, "fclass": "taxi", "name": "قامرة" }, "geometry": { "type": "Point", "coordinates": [ -9.231, 32.312 ] } },
{ "type": "Feature", "properties": { "osm_id": 1357929879.0, "code": 5622.0, "fclass": "bus_station", "name": "8.12.17.18" }, "geometry": { "type": "Point", "coordinates": [ -9.224, 32.294 ] } },
{ "type": "Feature", "properties": { "osm_id": 1357929910.0, "code": 5622.0, "fclass": "bus_station", "name": "6" }, "geometry": { "type": "Point", "coordinates": [ -9.235, 32.307 ] } },
{ "type": "Feature", "properties": { "osm_id": 1357929914.0, "code": 5622.0, "fclass": "bus_station", "name": "8.12.17.18" }, "geometry": { "type": "Point", "coordinates": [ -9.229, 32.287 ] } },
{ "type": "Feature", "properties": { "osm_id": 1357929918.0, "code": 5622.0, "fclass": "bus_station", "name": "8.12" }, "geometry": { "type": "Point", "coordinates": [ -9.231, 32.309 ] } },
{ "type": "Feature", "properties": { "osm_id": 1357929932.0, "code": 5622.0, "fclass": "bus_station", "name": "8.12.17" }, "geometry": { "type": "Point", "coordinates": [ -9.221, 32.3 ] } },
{ "type": "Feature", "properties": { "osm_id": 1357929976.0, "code": 5622.0, "fclass": "bus_station", "name": "6" }, "geometry": { "type": "Point", "coordinates": [ -9.229, 32.307 ] } },
{ "type": "Feature", "properties": { "osm_id": 1357929979.0, "code": 5622.0, "fclass": "bus_station", "name": "8.12.17" }, "geometry": { "type": "Point", "coordinates": [ -9.228, 32.289 ] } },
{ "type": "Feature", "properties": { "osm_id": 1357929999.0, "code": 5622.0, "fclass": "bus_station", "name": "8.12" }, "geometry": { "type": "Point", "coordinates": [ -9.228, 32.307 ] } },
{ "type": "Feature", "properties": { "osm_id": 1357930010.0, "code": 5622.0, "fclass": "bus_station", "name": "8.12.18" }, "geometry": { "type": "Point", "coordinates": [ -9.229, 32.308 ] } },
{ "type": "Feature", "properties": { "osm_id": 1357930029.0, "code": 5622.0, "fclass": "bus_station", "name": "6" }, "geometry": { "type": "Point", "coordinates": [ -9.23, 32.306 ] } },
{ "type": "Feature", "properties": { "osm_id": 1357930080.0, "code": 5622.0, "fclass": "bus_station", "name": "6" }, "geometry": { "type": "Point", "coordinates": [ -9.23, 32.306 ] } },
{ "type": "Feature", "properties": { "osm_id": 1357930106.0, "code": 5622.0, "fclass": "bus_station", "name": "8.12" }, "geometry": { "type": "Point", "coordinates": [ -9.231, 32.309 ] } },
{ "type": "Feature", "properties": { "osm_id": 1357930109.0, "code": 5622.0, "fclass": "bus_station", "name": "8.12.17" }, "geometry": { "type": "Point", "coordinates": [ -9.224, 32.294 ] } },
{ "type": "Feature", "properties": { "osm_id": 1357930123.0, "code": 5622.0, "fclass": "bus_station", "name": "4.6.18" }, "geometry": { "type": "Point", "coordinates": [ -9.233, 32.31 ] } },
{ "type": "Feature", "properties": { "osm_id": 1357930147.0, "code": 5622.0, "fclass": "bus_station", "name": "6" }, "geometry": { "type": "Point", "coordinates": [ -9.234, 32.306 ] } },
{ "type": "Feature", "properties": { "osm_id": 1357930155.0, "code": 5622.0, "fclass": "bus_station", "name": "8.12.17" }, "geometry": { "type": "Point", "coordinates": [ -9.221, 32.303 ] } },
{ "type": "Feature", "properties": { "osm_id": 1357930166.0, "code": 5622.0, "fclass": "bus_station", "name": "4.6" }, "geometry": { "type": "Point", "coordinates": [ -9.233, 32.31 ] } },
{ "type": "Feature", "properties": { "osm_id": 1357930179.0, "code": 5622.0, "fclass": "bus_station", "name": "8.12.17.18" }, "geometry": { "type": "Point", "coordinates": [ -9.228, 32.289 ] } },
{ "type": "Feature", "properties": { "osm_id": 1357930184.0, "code": 5622.0, "fclass": "bus_station", "name": "8.12.17.18" }, "geometry": { "type": "Point", "coordinates": [ -9.221, 32.3 ] } },
{ "type": "Feature", "properties": { "osm_id": 1357930191.0, "code": 5622.0, "fclass": "bus_station", "name": "8.12.17.18" }, "geometry": { "type": "Point", "coordinates": [ -9.221, 32.303 ] } },
{ "type": "Feature", "properties": { "osm_id": 1363052408.0, "code": 5622.0, "fclass": "bus_station", "name": "8.12.17" }, "geometry": { "type": "Point", "coordinates": [ -9.229, 32.287 ] } },
{ "type": "Feature", "properties": { "osm_id": 1363063171.0, "code": 5641.0, "fclass": "taxi", "name": "petit taxi" }, "geometry": { "type": "Point", "coordinates": [ -9.236, 32.29 ] } },
{ "type": "Feature", "properties": { "osm_id": 1384388703.0, "code": 5641.0, "fclass": "taxi", "name": null }, "geometry": { "type": "Point", "coordinates": [ -9.083, 32.112 ] } },
{ "type": "Feature", "properties": { "osm_id": 1385104795.0, "code": 5603.0, "fclass": "tram_stop", "name": "Gare de Salé محطة القطار سلا" }, "geometry": { "type": "Point", "coordinates": [ -6.816, 34.038 ] } },
{ "type": "Feature", "properties": { "osm_id": 1385104799.0, "code": 5603.0, "fclass": "tram_stop", "name": "Diar ديار" }, "geometry": { "type": "Point", "coordinates": [ -6.815, 34.041 ] } },
{ "type": "Feature", "properties": { "osm_id": 1385104813.0, "code": 5603.0, "fclass": "tram_stop", "name": "Hay Karima حي كريمة" }, "geometry": { "type": "Point", "coordinates": [ -6.794, 34.054 ] } },
{ "type": "Feature", "properties": { "osm_id": 1385104814.0, "code": 5603.0, "fclass": "tram_stop", "name": "Tabriquet تابريكت" }, "geometry": { "type": "Point", "coordinates": [ -6.801, 34.048 ] } },
{ "type": "Feature", "properties": { "osm_id": 1385104815.0, "code": 5603.0, "fclass": "tram_stop", "name": "Mohammed V-Opéra محمد الخامس-أوبرا" }, "geometry": { "type": "Point", "coordinates": [ -6.811, 34.043 ] } },
{ "type": "Feature", "properties": { "osm_id": 1385104817.0, "code": 5603.0, "fclass": "tram_stop", "name": "Place du 16 Novembre ساحة 16 نونبر" }, "geometry": { "type": "Point", "coordinates": [ -6.825, 34.025 ] } },
{ "type": "Feature", "properties": { "osm_id": 1385104828.0, "code": 5603.0, "fclass": "tram_stop", "name": "La Poste البريد" }, "geometry": { "type": "Point", "coordinates": [ -6.807, 34.045 ] } },
{ "type": "Feature", "properties": { "osm_id": 1385128920.0, "code": 5603.0, "fclass": "tram_stop", "name": "Arrazi الرازي" }, "geometry": { "type": "Point", "coordinates": [ -6.813, 34.035 ] } },
{ "type": "Feature", "properties": { "osm_id": 1385128927.0, "code": 5603.0, "fclass": "tram_stop", "name": "Ibn Rochd ابن رشد" }, "geometry": { "type": "Point", "coordinates": [ -6.858, 33.989 ] } },
{ "type": "Feature", "properties": { "osm_id": 1385128949.0, "code": 5603.0, "fclass": "tram_stop", "name": "Ibn Sina ابن سينا" }, "geometry": { "type": "Point", "coordinates": [ -6.852, 33.995 ] } },
{ "type": "Feature", "properties": { "osm_id": 1385128950.0, "code": 5603.0, "fclass": "tram_stop", "name": "Place de Russie ساحة روسيا" }, "geometry": { "type": "Point", "coordinates": [ -6.85, 34.019 ] } },
{ "type": "Feature", "properties": { "osm_id": 1385128952.0, "code": 5603.0, "fclass": "tram_stop", "name": "Hassan II الحسن الثاني" }, "geometry": { "type": "Point", "coordinates": [ -6.8, 34.035 ] } },
{ "type": "Feature", "properties": { "osm_id": 1385128955.0, "code": 5603.0, "fclass": "tram_stop", "name": "Ibn Khaldoun ابن خلدون" }, "geometry": { "type": "Point", "coordinates": [ -6.843, 34.004 ] } },
{ "type": "Feature", "properties": { "osm_id": 1385128965.0, "code": 5603.0, "fclass": "tram_stop", "name": "Hôpital Moulay Youssef" }, "geometry": { "type": "Point", "coordinates": [ -6.859, 34.011 ] } },
{ "type": "Feature", "properties": { "osm_id": 1385128984.0, "code": 5603.0, "fclass": "tram_stop", "name": "Bab El Had باب الحد" }, "geometry": { "type": "Point", "coordinates": [ -6.843, 34.021 ] } },
{ "type": "Feature", "properties": { "osm_id": 1385128993.0, "code": 5603.0, "fclass": "tram_stop", "name": "Sidi Mohammed Ben Abdellah" }, "geometry": { "type": "Point", "coordinates": [ -6.855, 34.016 ] } },
{ "type": "Feature", "properties": { "osm_id": 1385129014.0, "code": 5603.0, "fclass": "tram_stop", "name": "Place Al Joulane L2" }, "geometry": { "type": "Point", "coordinates": [ -6.831, 34.019 ] } },
{ "type": "Feature", "properties": { "osm_id": 1385129016.0, "code": 5603.0, "fclass": "tram_stop", "name": "Bettana بطانة" }, "geometry": { "type": "Point", "coordinates": [ -6.807, 34.035 ] } },
{ "type": "Feature", "properties": { "osm_id": 1399376145.0, "code": 5641.0, "fclass": "taxi", "name": null }, "geometry": { "type": "Point", "coordinates": [ -7.999, 31.634 ] } },
{ "type": "Feature", "properties": { "osm_id": 1414114263.0, "code": 5621.0, "fclass": "bus_stop", "name": "Derb Kabir" }, "geometry": { "type": "Point", "coordinates": [ -7.596, 33.572 ] } },
{ "type": "Feature", "properties": { "osm_id": 1414545740.0, "code": 5621.0, "fclass": "bus_stop", "name": "IPUT" }, "geometry": { "type": "Point", "coordinates": [ -7.601, 33.56 ] } },
{ "type": "Feature", "properties": { "osm_id": 1414545752.0, "code": 5621.0, "fclass": "bus_stop", "name": "Koréa" }, "geometry": { "type": "Point", "coordinates": [ -7.598, 33.562 ] } },
{ "type": "Feature", "properties": { "osm_id": 1414604443.0, "code": 5621.0, "fclass": "bus_stop", "name": "Café Idouar Ice" }, "geometry": { "type": "Point", "coordinates": [ -7.613, 33.534 ] } },
{ "type": "Feature", "properties": { "osm_id": 1414604460.0, "code": 5621.0, "fclass": "bus_stop", "name": "Renault QO" }, "geometry": { "type": "Point", "coordinates": [ -7.61, 33.535 ] } },
{ "type": "Feature", "properties": { "osm_id": 1414604473.0, "code": 5621.0, "fclass": "bus_stop", "name": "Pharmacie Omaria" }, "geometry": { "type": "Point", "coordinates": [ -7.602, 33.536 ] } },
{ "type": "Feature", "properties": { "osm_id": 1414604477.0, "code": 5621.0, "fclass": "bus_stop", "name": "École Bab Andalou" }, "geometry": { "type": "Point", "coordinates": [ -7.606, 33.537 ] } },
{ "type": "Feature", "properties": { "osm_id": 1415476513.0, "code": 5621.0, "fclass": "bus_stop", "name": "Mekanssa" }, "geometry": { "type": "Point", "coordinates": [ -7.584, 33.533 ] } },
{ "type": "Feature", "properties": { "osm_id": 1415476689.0, "code": 5621.0, "fclass": "bus_stop", "name": "Café Achkid" }, "geometry": { "type": "Point", "coordinates": [ -7.58, 33.541 ] } },
{ "type": "Feature", "properties": { "osm_id": 1415538924.0, "code": 5621.0, "fclass": "bus_stop", "name": "Olibya (Mohammed VI)" }, "geometry": { "type": "Point", "coordinates": [ -7.584, 33.547 ] } },
{ "type": "Feature", "properties": { "osm_id": 1415786939.0, "code": 5621.0, "fclass": "bus_stop", "name": null }, "geometry": { "type": "Point", "coordinates": [ -8.504, 33.257 ] } },
{ "type": "Feature", "properties": { "osm_id": 1416772849.0, "code": 5621.0, "fclass": "bus_stop", "name": "Hay El Masjid" }, "geometry": { "type": "Point", "coordinates": [ -7.607, 33.562 ] } },
{ "type": "Feature", "properties": { "osm_id": 1416772853.0, "code": 5621.0, "fclass": "bus_stop", "name": "Hay El Masjid" }, "geometry": { "type": "Point", "coordinates": [ -7.607, 33.563 ] } },
{ "type": "Feature", "properties": { "osm_id": 1416772901.0, "code": 5621.0, "fclass": "bus_stop", "name": "Pharmacie Aicha" }, "geometry": { "type": "Point", "coordinates": [ -7.601, 33.563 ] } },
{ "type": "Feature", "properties": { "osm_id": 1419624332.0, "code": 5622.0, "fclass": "bus_station", "name": null }, "geometry": { "type": "Point", "coordinates": [ -11.11, 28.428 ] } },
{ "type": "Feature", "properties": { "osm_id": 1419624333.0, "code": 5641.0, "fclass": "taxi", "name": null }, "geometry": { "type": "Point", "coordinates": [ -11.104, 28.435 ] } },
{ "type": "Feature", "properties": { "osm_id": 1447469954.0, "code": 5655.0, "fclass": "helipad", "name": null }, "geometry": { "type": "Point", "coordinates": [ -5.963, 35.55 ] } },
{ "type": "Feature", "properties": { "osm_id": 1447932139.0, "code": 5621.0, "fclass": "bus_stop", "name": "Rond Point Merchich" }, "geometry": { "type": "Point", "coordinates": [ -7.522, 33.452 ] } },
{ "type": "Feature", "properties": { "osm_id": 1457214372.0, "code": 5621.0, "fclass": "bus_stop", "name": "École Chahid Abdellah Hadaoui" }, "geometry": { "type": "Point", "coordinates": [ -7.425, 33.538 ] } },
{ "type": "Feature", "properties": { "osm_id": 1480599791.0, "code": 5601.0, "fclass": "railway_station", "name": "Souk el Arba du Gharb" }, "geometry": { "type": "Point", "coordinates": [ -5.998, 34.685 ] } },
{ "type": "Feature", "properties": { "osm_id": 1480989522.0, "code": 5601.0, "fclass": "railway_station", "name": "Matmata مطماطة" }, "geometry": { "type": "Point", "coordinates": [ -4.517, 34.117 ] } },
{ "type": "Feature", "properties": { "osm_id": 1481054778.0, "code": 5601.0, "fclass": "railway_station", "name": null }, "geometry": { "type": "Point", "coordinates": [ -3.145, 34.322 ] } },
{ "type": "Feature", "properties": { "osm_id": 1481071655.0, "code": 5601.0, "fclass": "railway_station", "name": "El Aïoun Sidi Mellouk العيون سيدي ملوك" }, "geometry": { "type": "Point", "coordinates": [ -2.511, 34.584 ] } },
{ "type": "Feature", "properties": { "osm_id": 1481071911.0, "code": 5601.0, "fclass": "railway_station", "name": "Beni Oukil" }, "geometry": { "type": "Point", "coordinates": [ -2.052, 34.629 ] } },
{ "type": "Feature", "properties": { "osm_id": 1481325942.0, "code": 5601.0, "fclass": "railway_station", "name": "Tendrara" }, "geometry": { "type": "Point", "coordinates": [ -1.944, 33.041 ] } },
{ "type": "Feature", "properties": { "osm_id": 1481327305.0, "code": 5601.0, "fclass": "railway_station", "name": "Tiouli تيولي" }, "geometry": { "type": "Point", "coordinates": [ -1.835, 34.367 ] } },
{ "type": "Feature", "properties": { "osm_id": 1481327698.0, "code": 5601.0, "fclass": "railway_station", "name": "Aïn Bni Mathar عين بني مطهر" }, "geometry": { "type": "Point", "coordinates": [ -2.023, 34.018 ] } },
{ "type": "Feature", "properties": { "osm_id": 1481327752.0, "code": 5601.0, "fclass": "railway_station", "name": "Oued Heimer وادي الحيمر" }, "geometry": { "type": "Point", "coordinates": [ -1.899, 34.45 ] } },
{ "type": "Feature", "properties": { "osm_id": 1481328226.0, "code": 5601.0, "fclass": "railway_station", "name": "El Fouchal" }, "geometry": { "type": "Point", "coordinates": [ -1.995, 33.814 ] } },
{ "type": "Feature", "properties": { "osm_id": 1481328664.0, "code": 5601.0, "fclass": "railway_station", "name": "Jnane Krater" }, "geometry": { "type": "Point", "coordinates": [ -1.947, 33.573 ] } },
{ "type": "Feature", "properties": { "osm_id": 1481425129.0, "code": 5601.0, "fclass": "railway_station", "name": "gare de Bouznika" }, "geometry": { "type": "Point", "coordinates": [ -7.162, 33.79 ] } },
{ "type": "Feature", "properties": { "osm_id": 1484989796.0, "code": 5621.0, "fclass": "bus_stop", "name": "Commune Sidi Hajjaj" }, "geometry": { "type": "Point", "coordinates": [ -7.414, 33.54 ] } },
{ "type": "Feature", "properties": { "osm_id": 1497318276.0, "code": 5621.0, "fclass": "bus_stop", "name": "Contenair Oulad Salh" }, "geometry": { "type": "Point", "coordinates": [ -7.672, 33.418 ] } },
{ "type": "Feature", "properties": { "osm_id": 1497318285.0, "code": 5621.0, "fclass": "bus_stop", "name": "Sté. Samifi" }, "geometry": { "type": "Point", "coordinates": [ -7.655, 33.441 ] } },
{ "type": "Feature", "properties": { "osm_id": 1503506294.0, "code": 5621.0, "fclass": "bus_stop", "name": "Municipalité Tit Mellil" }, "geometry": { "type": "Point", "coordinates": [ -7.483, 33.556 ] } },
{ "type": "Feature", "properties": { "osm_id": 1503506780.0, "code": 5621.0, "fclass": "bus_stop", "name": "Municipalité Tit Mellil" }, "geometry": { "type": "Point", "coordinates": [ -7.483, 33.556 ] } },
{ "type": "Feature", "properties": { "osm_id": 1526214148.0, "code": 5621.0, "fclass": "bus_stop", "name": "Relax" }, "geometry": { "type": "Point", "coordinates": [ -5.518, 33.899 ] } },
{ "type": "Feature", "properties": { "osm_id": 1534867006.0, "code": 5641.0, "fclass": "taxi", "name": "grand taxis" }, "geometry": { "type": "Point", "coordinates": [ -5.374, 35.562 ] } },
{ "type": "Feature", "properties": { "osm_id": 1538535031.0, "code": 5621.0, "fclass": "bus_stop", "name": "ONEP Bni Yakh" }, "geometry": { "type": "Point", "coordinates": [ -7.347, 33.658 ] } },
{ "type": "Feature", "properties": { "osm_id": 1538610105.0, "code": 5621.0, "fclass": "bus_stop", "name": "Pharmacie Khobzi" }, "geometry": { "type": "Point", "coordinates": [ -7.355, 33.663 ] } },
{ "type": "Feature", "properties": { "osm_id": 1539081452.0, "code": 5621.0, "fclass": "bus_stop", "name": "Dar Haj Moussa" }, "geometry": { "type": "Point", "coordinates": [ -7.463, 33.55 ] } },
{ "type": "Feature", "properties": { "osm_id": 1540573047.0, "code": 5601.0, "fclass": "railway_station", "name": "Facultés" }, "geometry": { "type": "Point", "coordinates": [ -7.65, 33.541 ] } },
{ "type": "Feature", "properties": { "osm_id": 1540612123.0, "code": 5601.0, "fclass": "railway_station", "name": "L'Oasis" }, "geometry": { "type": "Point", "coordinates": [ -7.631, 33.555 ] } },
{ "type": "Feature", "properties": { "osm_id": 1540882839.0, "code": 5621.0, "fclass": "bus_stop", "name": "H.E.M." }, "geometry": { "type": "Point", "coordinates": [ -7.622, 33.531 ] } },
{ "type": "Feature", "properties": { "osm_id": 1542627038.0, "code": 5621.0, "fclass": "bus_stop", "name": "Entree Quartier Erac" }, "geometry": { "type": "Point", "coordinates": [ -6.933, 32.884 ] } },
{ "type": "Feature", "properties": { "osm_id": 1554272214.0, "code": 5621.0, "fclass": "bus_stop", "name": "Taxi Deroua" }, "geometry": { "type": "Point", "coordinates": [ -7.542, 33.374 ] } },
{ "type": "Feature", "properties": { "osm_id": 1554778737.0, "code": 5641.0, "fclass": "taxi", "name": "Grand Taxi to Volubilis" }, "geometry": { "type": "Point", "coordinates": [ -5.554, 33.899 ] } },
{ "type": "Feature", "properties": { "osm_id": 1558144707.0, "code": 5601.0, "fclass": "railway_station", "name": "Guercif جرسيف" }, "geometry": { "type": "Point", "coordinates": [ -3.349, 34.23 ] } },
{ "type": "Feature", "properties": { "osm_id": 1576269520.0, "code": 5641.0, "fclass": "taxi", "name": null }, "geometry": { "type": "Point", "coordinates": [ -3.534, 34.941 ] } },
{ "type": "Feature", "properties": { "osm_id": 1578862507.0, "code": 5622.0, "fclass": "bus_station", "name": null }, "geometry": { "type": "Point", "coordinates": [ -3.93, 35.234 ] } },
{ "type": "Feature", "properties": { "osm_id": 1581960970.0, "code": 5601.0, "fclass": "railway_station", "name": "Nador Ville مدينة الناظور" }, "geometry": { "type": "Point", "coordinates": [ -2.928, 35.184 ] } },
{ "type": "Feature", "properties": { "osm_id": 1588103622.0, "code": 5601.0, "fclass": "railway_station", "name": "Gare de Meknès" }, "geometry": { "type": "Point", "coordinates": [ -5.532, 33.897 ] } },
{ "type": "Feature", "properties": { "osm_id": 1589080789.0, "code": 5641.0, "fclass": "taxi", "name": "Grand Taxi Ouislane" }, "geometry": { "type": "Point", "coordinates": [ -5.486, 33.914 ] } },
{ "type": "Feature", "properties": { "osm_id": 1589080919.0, "code": 5621.0, "fclass": "bus_stop", "name": "Diour Doha" }, "geometry": { "type": "Point", "coordinates": [ -5.493, 33.922 ] } },
{ "type": "Feature", "properties": { "osm_id": 1589080920.0, "code": 5621.0, "fclass": "bus_stop", "name": "Diour Fiach" }, "geometry": { "type": "Point", "coordinates": [ -5.489, 33.922 ] } },
{ "type": "Feature", "properties": { "osm_id": 1589623514.0, "code": 5621.0, "fclass": "bus_stop", "name": "Pont Hamria" }, "geometry": { "type": "Point", "coordinates": [ -5.541, 33.897 ] } },
{ "type": "Feature", "properties": { "osm_id": 1589623716.0, "code": 5621.0, "fclass": "bus_stop", "name": "Kharrouba" }, "geometry": { "type": "Point", "coordinates": [ -5.525, 33.9 ] } },
{ "type": "Feature", "properties": { "osm_id": 1589623725.0, "code": 5621.0, "fclass": "bus_stop", "name": "Kharrouba" }, "geometry": { "type": "Point", "coordinates": [ -5.526, 33.9 ] } },
{ "type": "Feature", "properties": { "osm_id": 1589623835.0, "code": 5621.0, "fclass": "bus_stop", "name": "ISTA Sidi Baba" }, "geometry": { "type": "Point", "coordinates": [ -5.573, 33.904 ] } },
{ "type": "Feature", "properties": { "osm_id": 1589644540.0, "code": 5621.0, "fclass": "bus_stop", "name": "Délégation du MEN" }, "geometry": { "type": "Point", "coordinates": [ -5.565, 33.88 ] } },
{ "type": "Feature", "properties": { "osm_id": 1589896828.0, "code": 5621.0, "fclass": "bus_stop", "name": "Anciens Combattants" }, "geometry": { "type": "Point", "coordinates": [ -5.524, 33.904 ] } },
{ "type": "Feature", "properties": { "osm_id": 1589903106.0, "code": 5621.0, "fclass": "bus_stop", "name": "Marché Central" }, "geometry": { "type": "Point", "coordinates": [ -5.551, 33.9 ] } },
{ "type": "Feature", "properties": { "osm_id": 1596350655.0, "code": 5621.0, "fclass": "bus_stop", "name": "Wifak" }, "geometry": { "type": "Point", "coordinates": [ -5.58, 33.895 ] } },
{ "type": "Feature", "properties": { "osm_id": 1596555745.0, "code": 5655.0, "fclass": "helipad", "name": null }, "geometry": { "type": "Point", "coordinates": [ -5.33, 35.593 ] } },
{ "type": "Feature", "properties": { "osm_id": 1601582236.0, "code": 5641.0, "fclass": "taxi", "name": "Taxi to Todra Gorge" }, "geometry": { "type": "Point", "coordinates": [ -5.531, 31.522 ] } },
{ "type": "Feature", "properties": { "osm_id": 1601789981.0, "code": 5621.0, "fclass": "bus_stop", "name": null }, "geometry": { "type": "Point", "coordinates": [ -5.581, 33.867 ] } },
{ "type": "Feature", "properties": { "osm_id": 1603451973.0, "code": 5621.0, "fclass": "bus_stop", "name": "Touarga (Lot Radia Mabrouka)" }, "geometry": { "type": "Point", "coordinates": [ -5.568, 33.877 ] } },
{ "type": "Feature", "properties": { "osm_id": 1606684234.0, "code": 5622.0, "fclass": "bus_station", "name": "CTM" }, "geometry": { "type": "Point", "coordinates": [ -8.971, 29.719 ] } },
{ "type": "Feature", "properties": { "osm_id": 1606684236.0, "code": 5622.0, "fclass": "bus_station", "name": "Jawhara, El Hilal" }, "geometry": { "type": "Point", "coordinates": [ -8.973, 29.721 ] } },
{ "type": "Feature", "properties": { "osm_id": 1606684237.0, "code": 5622.0, "fclass": "bus_station", "name": "STCR" }, "geometry": { "type": "Point", "coordinates": [ -8.973, 29.72 ] } },
{ "type": "Feature", "properties": { "osm_id": 1608165536.0, "code": 5621.0, "fclass": "bus_stop", "name": "Mosquée Mohammadi" }, "geometry": { "type": "Point", "coordinates": [ -5.576, 33.868 ] } },
{ "type": "Feature", "properties": { "osm_id": 1608165641.0, "code": 5621.0, "fclass": "bus_stop", "name": "Souk Mabrouka" }, "geometry": { "type": "Point", "coordinates": [ -5.573, 33.88 ] } },
{ "type": "Feature", "properties": { "osm_id": 1608165929.0, "code": 5621.0, "fclass": "bus_stop", "name": "ISTA Sidi Baba" }, "geometry": { "type": "Point", "coordinates": [ -5.573, 33.903 ] } },
{ "type": "Feature", "properties": { "osm_id": 1608165932.0, "code": 5621.0, "fclass": "bus_stop", "name": "Sijilmassa" }, "geometry": { "type": "Point", "coordinates": [ -5.575, 33.873 ] } },
{ "type": "Feature", "properties": { "osm_id": 1608166002.0, "code": 5621.0, "fclass": "bus_stop", "name": "Bab Jdid" }, "geometry": { "type": "Point", "coordinates": [ -5.574, 33.897 ] } },
{ "type": "Feature", "properties": { "osm_id": 1609235353.0, "code": 5621.0, "fclass": "bus_stop", "name": "Stade D'honneur (Eglise)" }, "geometry": { "type": "Point", "coordinates": [ -5.538, 33.892 ] } },
{ "type": "Feature", "properties": { "osm_id": 1615011596.0, "code": 5641.0, "fclass": "taxi", "name": "Taza - Gare routière" }, "geometry": { "type": "Point", "coordinates": [ -4.007, 34.232 ] } },
{ "type": "Feature", "properties": { "osm_id": 1620720066.0, "code": 5621.0, "fclass": "bus_stop", "name": "Zouitina Entrée" }, "geometry": { "type": "Point", "coordinates": [ -5.515, 33.856 ] } },
{ "type": "Feature", "properties": { "osm_id": 1631787343.0, "code": 5622.0, "fclass": "bus_station", "name": "Station Bus Terminus" }, "geometry": { "type": "Point", "coordinates": [ -6.736, 33.991 ] } },
{ "type": "Feature", "properties": { "osm_id": 1635110408.0, "code": 5641.0, "fclass": "taxi", "name": "Grand Taxis" }, "geometry": { "type": "Point", "coordinates": [ -10.035, 29.58 ] } },
{ "type": "Feature", "properties": { "osm_id": 1653197100.0, "code": 5603.0, "fclass": "tram_stop", "name": "Place Al Joulane L1" }, "geometry": { "type": "Point", "coordinates": [ -6.831, 34.018 ] } },
{ "type": "Feature", "properties": { "osm_id": 1653197101.0, "code": 5603.0, "fclass": "tram_stop", "name": "Bab Chellah باب شالة" }, "geometry": { "type": "Point", "coordinates": [ -6.834, 34.024 ] } },
{ "type": "Feature", "properties": { "osm_id": 1653197102.0, "code": 5603.0, "fclass": "tram_stop", "name": "Bab Rouah باب الرواح" }, "geometry": { "type": "Point", "coordinates": [ -6.839, 34.012 ] } },
{ "type": "Feature", "properties": { "osm_id": 1653197103.0, "code": 5603.0, "fclass": "tram_stop", "name": "Bibliothèque Nationale" }, "geometry": { "type": "Point", "coordinates": [ -6.843, 34.009 ] } },
{ "type": "Feature", "properties": { "osm_id": 1653197107.0, "code": 5603.0, "fclass": "tram_stop", "name": "Medina Rabat الرباط المدينة العتيقة" }, "geometry": { "type": "Point", "coordinates": [ -6.839, 34.022 ] } },
{ "type": "Feature", "properties": { "osm_id": 1653197109.0, "code": 5603.0, "fclass": "tram_stop", "name": "Mohammed V - Gare de Rabat" }, "geometry": { "type": "Point", "coordinates": [ -6.836, 34.016 ] } },
{ "type": "Feature", "properties": { "osm_id": 1654142232.0, "code": 5603.0, "fclass": "tram_stop", "name": "Pont Hassan II قنطرة الحسن الثاني" }, "geometry": { "type": "Point", "coordinates": [ -6.822, 34.025 ] } },
{ "type": "Feature", "properties": { "osm_id": 1654158466.0, "code": 5603.0, "fclass": "tram_stop", "name": "Bab Lamrissa باب لمريسة" }, "geometry": { "type": "Point", "coordinates": [ -6.819, 34.032 ] } },
{ "type": "Feature", "properties": { "osm_id": 1660576934.0, "code": 5622.0, "fclass": "bus_station", "name": "CTM" }, "geometry": { "type": "Point", "coordinates": [ -5.115, 33.526 ] } },
{ "type": "Feature", "properties": { "osm_id": 1660602704.0, "code": 5641.0, "fclass": "taxi", "name": null }, "geometry": { "type": "Point", "coordinates": [ -5.546, 33.899 ] } },
{ "type": "Feature", "properties": { "osm_id": 1660843258.0, "code": 5641.0, "fclass": "taxi", "name": "grand taxi" }, "geometry": { "type": "Point", "coordinates": [ -9.483, 30.679 ] } },
{ "type": "Feature", "properties": { "osm_id": 1664263860.0, "code": 5601.0, "fclass": "railway_station", "name": "Ras El Ma" }, "geometry": { "type": "Point", "coordinates": [ -5.107, 33.989 ] } },
{ "type": "Feature", "properties": { "osm_id": 1680913224.0, "code": 5621.0, "fclass": "bus_stop", "name": "Oulad Salh" }, "geometry": { "type": "Point", "coordinates": [ -7.692, 33.377 ] } },
{ "type": "Feature", "properties": { "osm_id": 1684537914.0, "code": 5621.0, "fclass": "bus_stop", "name": "Shuttle To Tanger Med" }, "geometry": { "type": "Point", "coordinates": [ -5.803, 35.769 ] } },
{ "type": "Feature", "properties": { "osm_id": 1686960363.0, "code": 5641.0, "fclass": "taxi", "name": "Grands taxis Akchour, Oued Laou, Dar Akouba سيارات الأجرة الكبرى أقشور، وا" }, "geometry": { "type": "Point", "coordinates": [ -5.269, 35.17 ] } },
{ "type": "Feature", "properties": { "osm_id": 1686960647.0, "code": 5641.0, "fclass": "taxi", "name": "grand taxi سيارات الأجرة الكبرى" }, "geometry": { "type": "Point", "coordinates": [ -5.182, 35.244 ] } },
{ "type": "Feature", "properties": { "osm_id": 1686960733.0, "code": 5641.0, "fclass": "taxi", "name": "Grands Taxis Tetouan & Tanger" }, "geometry": { "type": "Point", "coordinates": [ -5.269, 35.169 ] } },
{ "type": "Feature", "properties": { "osm_id": 1686960797.0, "code": 5641.0, "fclass": "taxi", "name": "grand taxis Larache" }, "geometry": { "type": "Point", "coordinates": [ -6.031, 35.465 ] } },
{ "type": "Feature", "properties": { "osm_id": 1686960800.0, "code": 5641.0, "fclass": "taxi", "name": "grand taxis" }, "geometry": { "type": "Point", "coordinates": [ -5.322, 35.229 ] } },
{ "type": "Feature", "properties": { "osm_id": 1686960811.0, "code": 5601.0, "fclass": "railway_station", "name": "Asilah" }, "geometry": { "type": "Point", "coordinates": [ -6.024, 35.482 ] } },
{ "type": "Feature", "properties": { "osm_id": 1686960867.0, "code": 5641.0, "fclass": "taxi", "name": "Grand Taxis" }, "geometry": { "type": "Point", "coordinates": [ -6.153, 35.192 ] } },
{ "type": "Feature", "properties": { "osm_id": 1686960922.0, "code": 5641.0, "fclass": "taxi", "name": "grand taxis سيارات الأجرة الكبرى" }, "geometry": { "type": "Point", "coordinates": [ -5.092, 35.449 ] } },
{ "type": "Feature", "properties": { "osm_id": 1686961116.0, "code": 5641.0, "fclass": "taxi", "name": "grand taxis Tanger" }, "geometry": { "type": "Point", "coordinates": [ -6.031, 35.466 ] } },
{ "type": "Feature", "properties": { "osm_id": 1686961198.0, "code": 5641.0, "fclass": "taxi", "name": "Petits taxis" }, "geometry": { "type": "Point", "coordinates": [ -5.267, 35.168 ] } },
{ "type": "Feature", "properties": { "osm_id": 1687018970.0, "code": 5641.0, "fclass": "taxi", "name": "grand taxi Oued Laou سيارات الأجرة الكبرى وادي لو" }, "geometry": { "type": "Point", "coordinates": [ -5.363, 35.569 ] } },
{ "type": "Feature", "properties": { "osm_id": 1687718627.0, "code": 5641.0, "fclass": "taxi", "name": "grand taxis" }, "geometry": { "type": "Point", "coordinates": [ -5.508, 34.466 ] } },
{ "type": "Feature", "properties": { "osm_id": 1687718670.0, "code": 5641.0, "fclass": "taxi", "name": "Petite taxis" }, "geometry": { "type": "Point", "coordinates": [ -4.982, 34.06 ] } },
{ "type": "Feature", "properties": { "osm_id": 1687718689.0, "code": 5641.0, "fclass": "taxi", "name": "Grand Taxis Azrou/Ifrane" }, "geometry": { "type": "Point", "coordinates": [ -4.997, 34.031 ] } },
{ "type": "Feature", "properties": { "osm_id": 1687718716.0, "code": 5621.0, "fclass": "bus_stop", "name": null }, "geometry": { "type": "Point", "coordinates": [ -5.002, 34.043 ] } },
{ "type": "Feature", "properties": { "osm_id": 1687718723.0, "code": 5641.0, "fclass": "taxi", "name": "Petits taxis" }, "geometry": { "type": "Point", "coordinates": [ -5.003, 34.043 ] } },
{ "type": "Feature", "properties": { "osm_id": 1687729160.0, "code": 5641.0, "fclass": "taxi", "name": null }, "geometry": { "type": "Point", "coordinates": [ -5.911, 35.727 ] } },
{ "type": "Feature", "properties": { "osm_id": 1687729212.0, "code": 5641.0, "fclass": "taxi", "name": "Grand Taxis Tanger" }, "geometry": { "type": "Point", "coordinates": [ -5.904, 35.716 ] } },
{ "type": "Feature", "properties": { "osm_id": 1690522679.0, "code": 5621.0, "fclass": "bus_stop", "name": "SGS" }, "geometry": { "type": "Point", "coordinates": [ -7.506, 33.624 ] } },
{ "type": "Feature", "properties": { "osm_id": 1690657889.0, "code": 5621.0, "fclass": "bus_stop", "name": "Arrondissement Police Qods" }, "geometry": { "type": "Point", "coordinates": [ -7.498, 33.616 ] } },
{ "type": "Feature", "properties": { "osm_id": 1690658213.0, "code": 5621.0, "fclass": "bus_stop", "name": "Hay Mabrouka" }, "geometry": { "type": "Point", "coordinates": [ -7.567, 33.566 ] } },
{ "type": "Feature", "properties": { "osm_id": 1690658394.0, "code": 5621.0, "fclass": "bus_stop", "name": "Marjane Aïn Sbaâ" }, "geometry": { "type": "Point", "coordinates": [ -7.53, 33.596 ] } },
{ "type": "Feature", "properties": { "osm_id": 1690658869.0, "code": 5621.0, "fclass": "bus_stop", "name": "Espace La Pause" }, "geometry": { "type": "Point", "coordinates": [ -7.572, 33.562 ] } },
{ "type": "Feature", "properties": { "osm_id": 1693979552.0, "code": 5621.0, "fclass": "bus_stop", "name": "Mosquée Lalla Asma" }, "geometry": { "type": "Point", "coordinates": [ -7.54, 33.575 ] } },
{ "type": "Feature", "properties": { "osm_id": 1693979871.0, "code": 5621.0, "fclass": "bus_stop", "name": "Sté. Sinfa" }, "geometry": { "type": "Point", "coordinates": [ -7.519, 33.569 ] } },
{ "type": "Feature", "properties": { "osm_id": 1693979873.0, "code": 5621.0, "fclass": "bus_stop", "name": "Mosquée Lalla Asma" }, "geometry": { "type": "Point", "coordinates": [ -7.54, 33.575 ] } },
{ "type": "Feature", "properties": { "osm_id": 1695164414.0, "code": 5621.0, "fclass": "bus_stop", "name": "Groupe Scolaire Anoual" }, "geometry": { "type": "Point", "coordinates": [ -7.579, 33.571 ] } },
{ "type": "Feature", "properties": { "osm_id": 1696704153.0, "code": 5621.0, "fclass": "bus_stop", "name": "Groupe Scolaire Jules Ferry" }, "geometry": { "type": "Point", "coordinates": [ -7.371, 33.691 ] } },
{ "type": "Feature", "properties": { "osm_id": 1696704856.0, "code": 5621.0, "fclass": "bus_stop", "name": "Lycée Technique (Mohammedia)" }, "geometry": { "type": "Point", "coordinates": [ -7.365, 33.706 ] } },
{ "type": "Feature", "properties": { "osm_id": 1698212152.0, "code": 5621.0, "fclass": "bus_stop", "name": null }, "geometry": { "type": "Point", "coordinates": [ -4.008, 34.216 ] } },
{ "type": "Feature", "properties": { "osm_id": 1698212166.0, "code": 5621.0, "fclass": "bus_stop", "name": null }, "geometry": { "type": "Point", "coordinates": [ -4.017, 34.204 ] } },
{ "type": "Feature", "properties": { "osm_id": 1698212179.0, "code": 5621.0, "fclass": "bus_stop", "name": null }, "geometry": { "type": "Point", "coordinates": [ -4.006, 34.219 ] } },
{ "type": "Feature", "properties": { "osm_id": 1698212185.0, "code": 5621.0, "fclass": "bus_stop", "name": null }, "geometry": { "type": "Point", "coordinates": [ -4.008, 34.224 ] } },
{ "type": "Feature", "properties": { "osm_id": 1698212190.0, "code": 5621.0, "fclass": "bus_stop", "name": null }, "geometry": { "type": "Point", "coordinates": [ -4.008, 34.221 ] } },
{ "type": "Feature", "properties": { "osm_id": 1698212194.0, "code": 5622.0, "fclass": "bus_station", "name": "CTM" }, "geometry": { "type": "Point", "coordinates": [ -4.008, 34.222 ] } },
{ "type": "Feature", "properties": { "osm_id": 1698212199.0, "code": 5601.0, "fclass": "railway_station", "name": "Taza تازة" }, "geometry": { "type": "Point", "coordinates": [ -4.009, 34.233 ] } },
{ "type": "Feature", "properties": { "osm_id": 1698212210.0, "code": 5621.0, "fclass": "bus_stop", "name": null }, "geometry": { "type": "Point", "coordinates": [ -4.015, 34.205 ] } },
{ "type": "Feature", "properties": { "osm_id": 1698212220.0, "code": 5621.0, "fclass": "bus_stop", "name": null }, "geometry": { "type": "Point", "coordinates": [ -4.012, 34.213 ] } },
{ "type": "Feature", "properties": { "osm_id": 1698212228.0, "code": 5641.0, "fclass": "taxi", "name": "Grand Taxis Bab Bouidir" }, "geometry": { "type": "Point", "coordinates": [ -4.017, 34.203 ] } },
{ "type": "Feature", "properties": { "osm_id": 1698212257.0, "code": 5621.0, "fclass": "bus_stop", "name": null }, "geometry": { "type": "Point", "coordinates": [ -4.008, 34.221 ] } },
{ "type": "Feature", "properties": { "osm_id": 1698212269.0, "code": 5641.0, "fclass": "taxi", "name": "Grand Taxis" }, "geometry": { "type": "Point", "coordinates": [ -4.011, 34.222 ] } },
{ "type": "Feature", "properties": { "osm_id": 1698212271.0, "code": 5621.0, "fclass": "bus_stop", "name": null }, "geometry": { "type": "Point", "coordinates": [ -4.008, 34.222 ] } },
{ "type": "Feature", "properties": { "osm_id": 1698248375.0, "code": 5641.0, "fclass": "taxi", "name": "Grand Taxis" }, "geometry": { "type": "Point", "coordinates": [ -5.901, 34.997 ] } },
{ "type": "Feature", "properties": { "osm_id": 1698666997.0, "code": 5621.0, "fclass": "bus_stop", "name": "Taza Haute" }, "geometry": { "type": "Point", "coordinates": [ -4.015, 34.209 ] } },
{ "type": "Feature", "properties": { "osm_id": 1700506828.0, "code": 5621.0, "fclass": "bus_stop", "name": "Mandarouna" }, "geometry": { "type": "Point", "coordinates": [ -7.617, 33.529 ] } },
{ "type": "Feature", "properties": { "osm_id": 1701619528.0, "code": 5641.0, "fclass": "taxi", "name": "Grands Taxis" }, "geometry": { "type": "Point", "coordinates": [ -5.005, 34.046 ] } },
{ "type": "Feature", "properties": { "osm_id": 1746196117.0, "code": 5621.0, "fclass": "bus_stop", "name": "École Bab Andalou" }, "geometry": { "type": "Point", "coordinates": [ -7.606, 33.537 ] } },
{ "type": "Feature", "properties": { "osm_id": 1746196131.0, "code": 5621.0, "fclass": "bus_stop", "name": "Sports Plazza" }, "geometry": { "type": "Point", "coordinates": [ -7.632, 33.546 ] } },
{ "type": "Feature", "properties": { "osm_id": 1746196157.0, "code": 5621.0, "fclass": "bus_stop", "name": "Sports Plazza" }, "geometry": { "type": "Point", "coordinates": [ -7.632, 33.546 ] } },
{ "type": "Feature", "properties": { "osm_id": 1755434121.0, "code": 5621.0, "fclass": "bus_stop", "name": "Hay El Falah" }, "geometry": { "type": "Point", "coordinates": [ -7.55, 33.559 ] } },
{ "type": "Feature", "properties": { "osm_id": 1784000750.0, "code": 5622.0, "fclass": "bus_station", "name": null }, "geometry": { "type": "Point", "coordinates": [ -6.447, 30.694 ] } },
{ "type": "Feature", "properties": { "osm_id": 1784203847.0, "code": 5601.0, "fclass": "railway_station", "name": "Hassi Berkane" }, "geometry": { "type": "Point", "coordinates": [ -2.904, 34.869 ] } },
{ "type": "Feature", "properties": { "osm_id": 1786963275.0, "code": 5641.0, "fclass": "taxi", "name": null }, "geometry": { "type": "Point", "coordinates": [ -4.627, 34.673 ] } },
{ "type": "Feature", "properties": { "osm_id": 1787588260.0, "code": 5641.0, "fclass": "taxi", "name": "Grand taxi" }, "geometry": { "type": "Point", "coordinates": [ -4.638, 34.537 ] } },
{ "type": "Feature", "properties": { "osm_id": 1793977625.0, "code": 5621.0, "fclass": "bus_stop", "name": "Lot Walili" }, "geometry": { "type": "Point", "coordinates": [ -5.216, 33.94 ] } },
{ "type": "Feature", "properties": { "osm_id": 1824581019.0, "code": 5621.0, "fclass": "bus_stop", "name": null }, "geometry": { "type": "Point", "coordinates": [ -6.853, 33.852 ] } },
{ "type": "Feature", "properties": { "osm_id": 1824581024.0, "code": 5621.0, "fclass": "bus_stop", "name": null }, "geometry": { "type": "Point", "coordinates": [ -6.856, 33.857 ] } },
{ "type": "Feature", "properties": { "osm_id": 1824603746.0, "code": 5621.0, "fclass": "bus_stop", "name": null }, "geometry": { "type": "Point", "coordinates": [ -6.853, 33.985 ] } },
{ "type": "Feature", "properties": { "osm_id": 1824603809.0, "code": 5621.0, "fclass": "bus_stop", "name": null }, "geometry": { "type": "Point", "coordinates": [ -6.851, 33.985 ] } },
{ "type": "Feature", "properties": { "osm_id": 1824603859.0, "code": 5641.0, "fclass": "taxi", "name": null }, "geometry": { "type": "Point", "coordinates": [ -6.852, 33.985 ] } },
{ "type": "Feature", "properties": { "osm_id": 1824603869.0, "code": 5641.0, "fclass": "taxi", "name": null }, "geometry": { "type": "Point", "coordinates": [ -6.85, 33.983 ] } },
{ "type": "Feature", "properties": { "osm_id": 1824603870.0, "code": 5621.0, "fclass": "bus_stop", "name": null }, "geometry": { "type": "Point", "coordinates": [ -6.85, 33.985 ] } },
{ "type": "Feature", "properties": { "osm_id": 1824603937.0, "code": 5641.0, "fclass": "taxi", "name": null }, "geometry": { "type": "Point", "coordinates": [ -6.854, 33.987 ] } },
{ "type": "Feature", "properties": { "osm_id": 1833683225.0, "code": 5641.0, "fclass": "taxi", "name": null }, "geometry": { "type": "Point", "coordinates": [ -3.54, 35.006 ] } },
{ "type": "Feature", "properties": { "osm_id": 1835989681.0, "code": 5641.0, "fclass": "taxi", "name": null }, "geometry": { "type": "Point", "coordinates": [ -3.928, 35.239 ] } },
{ "type": "Feature", "properties": { "osm_id": 1838270426.0, "code": 5621.0, "fclass": "bus_stop", "name": "Lmzabienne" }, "geometry": { "type": "Point", "coordinates": [ -7.588, 33.514 ] } },
{ "type": "Feature", "properties": { "osm_id": 1838270432.0, "code": 5621.0, "fclass": "bus_stop", "name": "Mandarouna" }, "geometry": { "type": "Point", "coordinates": [ -7.617, 33.529 ] } },
{ "type": "Feature", "properties": { "osm_id": 1840019065.0, "code": 5641.0, "fclass": "taxi", "name": null }, "geometry": { "type": "Point", "coordinates": [ -7.991, 31.635 ] } },
{ "type": "Feature", "properties": { "osm_id": 1848117149.0, "code": 5621.0, "fclass": "bus_stop", "name": "Café Haouzia" }, "geometry": { "type": "Point", "coordinates": [ -7.57, 33.563 ] } },
{ "type": "Feature", "properties": { "osm_id": 1848422166.0, "code": 5621.0, "fclass": "bus_stop", "name": "Showroom" }, "geometry": { "type": "Point", "coordinates": [ -7.541, 33.601 ] } },
{ "type": "Feature", "properties": { "osm_id": 1848485600.0, "code": 5621.0, "fclass": "bus_stop", "name": "Port" }, "geometry": { "type": "Point", "coordinates": [ -7.402, 33.709 ] } },
{ "type": "Feature", "properties": { "osm_id": 1848544441.0, "code": 5621.0, "fclass": "bus_stop", "name": "L'Academie" }, "geometry": { "type": "Point", "coordinates": [ -7.668, 33.57 ] } },
{ "type": "Feature", "properties": { "osm_id": 1849018701.0, "code": 5621.0, "fclass": "bus_stop", "name": "Mosquée Mali" }, "geometry": { "type": "Point", "coordinates": [ -7.39, 33.687 ] } },
{ "type": "Feature", "properties": { "osm_id": 1849018727.0, "code": 5621.0, "fclass": "bus_stop", "name": "Arrêt Tadla" }, "geometry": { "type": "Point", "coordinates": [ -7.392, 33.689 ] } },
{ "type": "Feature", "properties": { "osm_id": 1849018804.0, "code": 5621.0, "fclass": "bus_stop", "name": "Gare Routière Mohammedia" }, "geometry": { "type": "Point", "coordinates": [ -7.391, 33.692 ] } },
{ "type": "Feature", "properties": { "osm_id": 1849019214.0, "code": 5621.0, "fclass": "bus_stop", "name": "Bradâa" }, "geometry": { "type": "Point", "coordinates": [ -7.371, 33.7 ] } },
{ "type": "Feature", "properties": { "osm_id": 1849019215.0, "code": 5621.0, "fclass": "bus_stop", "name": "Bradâa" }, "geometry": { "type": "Point", "coordinates": [ -7.371, 33.7 ] } },
{ "type": "Feature", "properties": { "osm_id": 1849019247.0, "code": 5621.0, "fclass": "bus_stop", "name": "Salam" }, "geometry": { "type": "Point", "coordinates": [ -7.36, 33.7 ] } },
{ "type": "Feature", "properties": { "osm_id": 1849019257.0, "code": 5621.0, "fclass": "bus_stop", "name": "Salam" }, "geometry": { "type": "Point", "coordinates": [ -7.359, 33.701 ] } },
{ "type": "Feature", "properties": { "osm_id": 1849019274.0, "code": 5621.0, "fclass": "bus_stop", "name": "Riad Salam" }, "geometry": { "type": "Point", "coordinates": [ -7.355, 33.701 ] } },
{ "type": "Feature", "properties": { "osm_id": 1849019278.0, "code": 5621.0, "fclass": "bus_stop", "name": "Mosquée Riad Salam" }, "geometry": { "type": "Point", "coordinates": [ -7.357, 33.701 ] } },
{ "type": "Feature", "properties": { "osm_id": 1849019399.0, "code": 5621.0, "fclass": "bus_stop", "name": "Résidence Fleur de Lys" }, "geometry": { "type": "Point", "coordinates": [ -7.369, 33.705 ] } },
{ "type": "Feature", "properties": { "osm_id": 1849019426.0, "code": 5621.0, "fclass": "bus_stop", "name": "Faculté Sciences Mohammedia" }, "geometry": { "type": "Point", "coordinates": [ -7.36, 33.705 ] } },
{ "type": "Feature", "properties": { "osm_id": 1849432507.0, "code": 5621.0, "fclass": "bus_stop", "name": "Lahraouienne" }, "geometry": { "type": "Point", "coordinates": [ -7.531, 33.551 ] } },
{ "type": "Feature", "properties": { "osm_id": 1849432556.0, "code": 5621.0, "fclass": "bus_stop", "name": "Collège El Youssi" }, "geometry": { "type": "Point", "coordinates": [ -7.536, 33.556 ] } },
{ "type": "Feature", "properties": { "osm_id": 1849432558.0, "code": 5621.0, "fclass": "bus_stop", "name": "Collège El Youssi" }, "geometry": { "type": "Point", "coordinates": [ -7.536, 33.556 ] } },
{ "type": "Feature", "properties": { "osm_id": 1849433210.0, "code": 5621.0, "fclass": "bus_stop", "name": "Mosquée Salam 2" }, "geometry": { "type": "Point", "coordinates": [ -7.482, 33.586 ] } },
{ "type": "Feature", "properties": { "osm_id": 1849433213.0, "code": 5621.0, "fclass": "bus_stop", "name": "Mosquée Salam 2" }, "geometry": { "type": "Point", "coordinates": [ -7.482, 33.586 ] } },
{ "type": "Feature", "properties": { "osm_id": 1849433331.0, "code": 5621.0, "fclass": "bus_stop", "name": "Bureau Police Anassi" }, "geometry": { "type": "Point", "coordinates": [ -7.494, 33.59 ] } },
{ "type": "Feature", "properties": { "osm_id": 1849433378.0, "code": 5621.0, "fclass": "bus_stop", "name": "Anassi" }, "geometry": { "type": "Point", "coordinates": [ -7.49, 33.592 ] } },
{ "type": "Feature", "properties": { "osm_id": 1849519895.0, "code": 5621.0, "fclass": "bus_stop", "name": "Sté. Les Assfa" }, "geometry": { "type": "Point", "coordinates": [ -7.512, 33.568 ] } },
{ "type": "Feature", "properties": { "osm_id": 1849822573.0, "code": 5621.0, "fclass": "bus_stop", "name": "Atlanta Sport" }, "geometry": { "type": "Point", "coordinates": [ -7.681, 33.54 ] } },
{ "type": "Feature", "properties": { "osm_id": 1849822677.0, "code": 5621.0, "fclass": "bus_stop", "name": "Riad Oulfa" }, "geometry": { "type": "Point", "coordinates": [ -7.701, 33.554 ] } },
{ "type": "Feature", "properties": { "osm_id": 1849822869.0, "code": 5621.0, "fclass": "bus_stop", "name": "Rond Point Morocco Mall" }, "geometry": { "type": "Point", "coordinates": [ -7.701, 33.571 ] } },
{ "type": "Feature", "properties": { "osm_id": 1851617492.0, "code": 5601.0, "fclass": "railway_station", "name": null }, "geometry": { "type": "Point", "coordinates": [ -5.005, 34.048 ] } },
{ "type": "Feature", "properties": { "osm_id": 1853230601.0, "code": 5621.0, "fclass": "bus_stop", "name": "Salle Corniche" }, "geometry": { "type": "Point", "coordinates": [ -7.688, 33.572 ] } },
{ "type": "Feature", "properties": { "osm_id": 1853230690.0, "code": 5621.0, "fclass": "bus_stop", "name": "École Sidi Abderrahmane" }, "geometry": { "type": "Point", "coordinates": [ -7.701, 33.575 ] } },
{ "type": "Feature", "properties": { "osm_id": 1853870182.0, "code": 5621.0, "fclass": "bus_stop", "name": "Droguerie Tamariss" }, "geometry": { "type": "Point", "coordinates": [ -7.876, 33.494 ] } },
{ "type": "Feature", "properties": { "osm_id": 1853870187.0, "code": 5621.0, "fclass": "bus_stop", "name": "Pharmacie Oulad Daoued" }, "geometry": { "type": "Point", "coordinates": [ -7.877, 33.497 ] } },
{ "type": "Feature", "properties": { "osm_id": 1853870215.0, "code": 5621.0, "fclass": "bus_stop", "name": "Fouala" }, "geometry": { "type": "Point", "coordinates": [ -7.878, 33.5 ] } },
{ "type": "Feature", "properties": { "osm_id": 1856357527.0, "code": 5621.0, "fclass": "bus_stop", "name": "Residencia de Mayores H-Salma" }, "geometry": { "type": "Point", "coordinates": [ -2.95, 35.278 ] } },
{ "type": "Feature", "properties": { "osm_id": 1856357943.0, "code": 5621.0, "fclass": "bus_stop", "name": "C. P. Anselmo Pardo" }, "geometry": { "type": "Point", "coordinates": [ -2.949, 35.284 ] } },
{ "type": "Feature", "properties": { "osm_id": 1857944645.0, "code": 5641.0, "fclass": "taxi", "name": null }, "geometry": { "type": "Point", "coordinates": [ -5.372, 35.569 ] } },
{ "type": "Feature", "properties": { "osm_id": 1857944649.0, "code": 5641.0, "fclass": "taxi", "name": null }, "geometry": { "type": "Point", "coordinates": [ -5.374, 35.569 ] } },
{ "type": "Feature", "properties": { "osm_id": 1865067683.0, "code": 5621.0, "fclass": "bus_stop", "name": "Groupe Zina" }, "geometry": { "type": "Point", "coordinates": [ -7.478, 33.554 ] } },
{ "type": "Feature", "properties": { "osm_id": 1866475919.0, "code": 5641.0, "fclass": "taxi", "name": null }, "geometry": { "type": "Point", "coordinates": [ -4.997, 34.038 ] } },
{ "type": "Feature", "properties": { "osm_id": 1867480200.0, "code": 5601.0, "fclass": "railway_station", "name": "gare Skhirat" }, "geometry": { "type": "Point", "coordinates": [ -7.039, 33.855 ] } },
{ "type": "Feature", "properties": { "osm_id": 1871674762.0, "code": 5601.0, "fclass": "railway_station", "name": "Gare Ain Dalia" }, "geometry": { "type": "Point", "coordinates": [ -5.822, 35.662 ] } },
{ "type": "Feature", "properties": { "osm_id": 1872001921.0, "code": 5622.0, "fclass": "bus_station", "name": "Grand Hôtel" }, "geometry": { "type": "Point", "coordinates": [ -5.348, 35.778 ] } },
{ "type": "Feature", "properties": { "osm_id": 1872001921.0, "code": 5621.0, "fclass": "bus_stop", "name": "Grand Hôtel" }, "geometry": { "type": "Point", "coordinates": [ -5.348, 35.778 ] } },
{ "type": "Feature", "properties": { "osm_id": 1872002247.0, "code": 5622.0, "fclass": "bus_station", "name": "Marina" }, "geometry": { "type": "Point", "coordinates": [ -5.347, 35.755 ] } },
{ "type": "Feature", "properties": { "osm_id": 1872002247.0, "code": 5621.0, "fclass": "bus_stop", "name": "Marina" }, "geometry": { "type": "Point", "coordinates": [ -5.347, 35.755 ] } },
{ "type": "Feature", "properties": { "osm_id": 1872002938.0, "code": 5622.0, "fclass": "bus_station", "name": "Marina 2" }, "geometry": { "type": "Point", "coordinates": [ -5.348, 35.761 ] } },
{ "type": "Feature", "properties": { "osm_id": 1872002938.0, "code": 5621.0, "fclass": "bus_stop", "name": "Marina 2" }, "geometry": { "type": "Point", "coordinates": [ -5.348, 35.761 ] } },
{ "type": "Feature", "properties": { "osm_id": 1872003110.0, "code": 5622.0, "fclass": "bus_station", "name": "Marina" }, "geometry": { "type": "Point", "coordinates": [ -5.346, 35.753 ] } },
{ "type": "Feature", "properties": { "osm_id": 1872003110.0, "code": 5621.0, "fclass": "bus_stop", "name": "Marina" }, "geometry": { "type": "Point", "coordinates": [ -5.346, 35.753 ] } },
{ "type": "Feature", "properties": { "osm_id": 1872003113.0, "code": 5622.0, "fclass": "bus_station", "name": "Marina Smir" }, "geometry": { "type": "Point", "coordinates": [ -5.346, 35.75 ] } },
{ "type": "Feature", "properties": { "osm_id": 1872003113.0, "code": 5621.0, "fclass": "bus_stop", "name": "Marina Smir" }, "geometry": { "type": "Point", "coordinates": [ -5.346, 35.75 ] } },
{ "type": "Feature", "properties": { "osm_id": 1873948804.0, "code": 5621.0, "fclass": "bus_stop", "name": "Café Route Andalouss" }, "geometry": { "type": "Point", "coordinates": [ -7.62, 33.531 ] } },
{ "type": "Feature", "properties": { "osm_id": 1929330437.0, "code": 5651.0, "fclass": "airport", "name": null }, "geometry": { "type": "Point", "coordinates": [ -9.073, 27.41 ] } },
{ "type": "Feature", "properties": { "osm_id": 1932875143.0, "code": 5621.0, "fclass": "bus_stop", "name": "Mosquée de Lissasfa - AT" }, "geometry": { "type": "Point", "coordinates": [ -7.67, 33.534 ] } },
{ "type": "Feature", "properties": { "osm_id": 1936060936.0, "code": 5621.0, "fclass": "bus_stop", "name": "Tarik El Khir" }, "geometry": { "type": "Point", "coordinates": [ -7.496, 33.609 ] } },
{ "type": "Feature", "properties": { "osm_id": 1944423841.0, "code": 5621.0, "fclass": "bus_stop", "name": null }, "geometry": { "type": "Point", "coordinates": [ -7.85, 31.518 ] } },
{ "type": "Feature", "properties": { "osm_id": 1944423842.0, "code": 5641.0, "fclass": "taxi", "name": null }, "geometry": { "type": "Point", "coordinates": [ -7.85, 31.518 ] } },
{ "type": "Feature", "properties": { "osm_id": 1945407440.0, "code": 5621.0, "fclass": "bus_stop", "name": "Carr. Schneider" }, "geometry": { "type": "Point", "coordinates": [ -7.668, 33.565 ] } },
{ "type": "Feature", "properties": { "osm_id": 1952747296.0, "code": 5621.0, "fclass": "bus_stop", "name": "Ezzahraoui" }, "geometry": { "type": "Point", "coordinates": [ -6.904, 32.872 ] } },
{ "type": "Feature", "properties": { "osm_id": 1952747305.0, "code": 5621.0, "fclass": "bus_stop", "name": "Université Hassan 1" }, "geometry": { "type": "Point", "coordinates": [ -6.905, 32.87 ] } },
{ "type": "Feature", "properties": { "osm_id": 1974305991.0, "code": 5621.0, "fclass": "bus_stop", "name": "Bus stop" }, "geometry": { "type": "Point", "coordinates": [ -8.875, 30.472 ] } },
{ "type": "Feature", "properties": { "osm_id": 2009477171.0, "code": 5641.0, "fclass": "taxi", "name": "Taxi Stand" }, "geometry": { "type": "Point", "coordinates": [ -7.592, 33.589 ] } },
{ "type": "Feature", "properties": { "osm_id": 2020436714.0, "code": 5621.0, "fclass": "bus_stop", "name": "Taghazout Village" }, "geometry": { "type": "Point", "coordinates": [ -9.708, 30.544 ] } },
{ "type": "Feature", "properties": { "osm_id": 2031101305.0, "code": 5641.0, "fclass": "taxi", "name": null }, "geometry": { "type": "Point", "coordinates": [ -9.772, 31.511 ] } },
{ "type": "Feature", "properties": { "osm_id": 2039854157.0, "code": 5641.0, "fclass": "taxi", "name": "Marjane" }, "geometry": { "type": "Point", "coordinates": [ -5.581, 33.856 ] } },
{ "type": "Feature", "properties": { "osm_id": 2126803379.0, "code": 5621.0, "fclass": "bus_stop", "name": "Cité Plateau" }, "geometry": { "type": "Point", "coordinates": [ -7.637, 33.568 ] } },
{ "type": "Feature", "properties": { "osm_id": 2131227018.0, "code": 5621.0, "fclass": "bus_stop", "name": "35" }, "geometry": { "type": "Point", "coordinates": [ -9.529, 30.359 ] } },
{ "type": "Feature", "properties": { "osm_id": 2131227019.0, "code": 5621.0, "fclass": "bus_stop", "name": "36" }, "geometry": { "type": "Point", "coordinates": [ -9.529, 30.359 ] } },
{ "type": "Feature", "properties": { "osm_id": 2131227023.0, "code": 5621.0, "fclass": "bus_stop", "name": "42" }, "geometry": { "type": "Point", "coordinates": [ -9.529, 30.359 ] } },
{ "type": "Feature", "properties": { "osm_id": 2131251718.0, "code": 5621.0, "fclass": "bus_stop", "name": "41" }, "geometry": { "type": "Point", "coordinates": [ -9.529, 30.359 ] } },
{ "type": "Feature", "properties": { "osm_id": 2131251719.0, "code": 5621.0, "fclass": "bus_stop", "name": "40" }, "geometry": { "type": "Point", "coordinates": [ -9.529, 30.359 ] } },
{ "type": "Feature", "properties": { "osm_id": 2134361904.0, "code": 5622.0, "fclass": "bus_station", "name": "Studio" }, "geometry": { "type": "Point", "coordinates": [ -5.344, 35.742 ] } },
{ "type": "Feature", "properties": { "osm_id": 2134361904.0, "code": 5621.0, "fclass": "bus_stop", "name": "Studio" }, "geometry": { "type": "Point", "coordinates": [ -5.344, 35.742 ] } },
{ "type": "Feature", "properties": { "osm_id": 2134361957.0, "code": 5622.0, "fclass": "bus_station", "name": "Kabila" }, "geometry": { "type": "Point", "coordinates": [ -5.338, 35.72 ] } },
{ "type": "Feature", "properties": { "osm_id": 2134361957.0, "code": 5621.0, "fclass": "bus_stop", "name": "Kabila" }, "geometry": { "type": "Point", "coordinates": [ -5.338, 35.72 ] } },
{ "type": "Feature", "properties": { "osm_id": 2134361984.0, "code": 5622.0, "fclass": "bus_station", "name": "Gorna" }, "geometry": { "type": "Point", "coordinates": [ -5.321, 35.677 ] } },
{ "type": "Feature", "properties": { "osm_id": 2134361984.0, "code": 5621.0, "fclass": "bus_stop", "name": "Gorna" }, "geometry": { "type": "Point", "coordinates": [ -5.321, 35.677 ] } },
{ "type": "Feature", "properties": { "osm_id": 2135428292.0, "code": 5621.0, "fclass": "bus_stop", "name": "Préfecture Ain Chock" }, "geometry": { "type": "Point", "coordinates": [ -7.652, 33.521 ] } },
{ "type": "Feature", "properties": { "osm_id": 2135428324.0, "code": 5621.0, "fclass": "bus_stop", "name": "Mediouna" }, "geometry": { "type": "Point", "coordinates": [ -7.517, 33.458 ] } },
{ "type": "Feature", "properties": { "osm_id": 2135428347.0, "code": 5621.0, "fclass": "bus_stop", "name": "Hay el Wahda" }, "geometry": { "type": "Point", "coordinates": [ -7.541, 33.54 ] } },
{ "type": "Feature", "properties": { "osm_id": 2138248332.0, "code": 5621.0, "fclass": "bus_stop", "name": "Gare Routière 2" }, "geometry": { "type": "Point", "coordinates": [ -7.59, 33.576 ] } },
{ "type": "Feature", "properties": { "osm_id": 2138248623.0, "code": 5621.0, "fclass": "bus_stop", "name": "Gare Routière 2" }, "geometry": { "type": "Point", "coordinates": [ -7.589, 33.576 ] } },
{ "type": "Feature", "properties": { "osm_id": 2138359221.0, "code": 5621.0, "fclass": "bus_stop", "name": "Place Maréchal" }, "geometry": { "type": "Point", "coordinates": [ -7.62, 33.595 ] } },
{ "type": "Feature", "properties": { "osm_id": 2138956989.0, "code": 5641.0, "fclass": "taxi", "name": null }, "geometry": { "type": "Point", "coordinates": [ -7.921, 31.137 ] } },
{ "type": "Feature", "properties": { "osm_id": 2139416372.0, "code": 5621.0, "fclass": "bus_stop", "name": "APAEI" }, "geometry": { "type": "Point", "coordinates": [ -7.632, 33.581 ] } },
{ "type": "Feature", "properties": { "osm_id": 2146498991.0, "code": 5621.0, "fclass": "bus_stop", "name": "Pharmacie Rachidi" }, "geometry": { "type": "Point", "coordinates": [ -7.649, 33.444 ] } },
{ "type": "Feature", "properties": { "osm_id": 2148151975.0, "code": 5622.0, "fclass": "bus_station", "name": null }, "geometry": { "type": "Point", "coordinates": [ -9.724, 29.693 ] } },
{ "type": "Feature", "properties": { "osm_id": 2148175588.0, "code": 5641.0, "fclass": "taxi", "name": null }, "geometry": { "type": "Point", "coordinates": [ -9.734, 29.695 ] } },
{ "type": "Feature", "properties": { "osm_id": 2150659522.0, "code": 5601.0, "fclass": "railway_station", "name": "Gare De Melloussa" }, "geometry": { "type": "Point", "coordinates": [ -5.66, 35.722 ] } },
{ "type": "Feature", "properties": { "osm_id": 2156449995.0, "code": 5601.0, "fclass": "railway_station", "name": "Bouarfa بوعرفة" }, "geometry": { "type": "Point", "coordinates": [ -1.966, 32.519 ] } },
{ "type": "Feature", "properties": { "osm_id": 2157136183.0, "code": 5601.0, "fclass": "railway_station", "name": "Mengoub" }, "geometry": { "type": "Point", "coordinates": [ -2.246, 32.264 ] } },
{ "type": "Feature", "properties": { "osm_id": 2161256820.0, "code": 5621.0, "fclass": "bus_stop", "name": "Doha" }, "geometry": { "type": "Point", "coordinates": [ -7.517, 33.591 ] } },
{ "type": "Feature", "properties": { "osm_id": 2161260949.0, "code": 5621.0, "fclass": "bus_stop", "name": "Anapec SM" }, "geometry": { "type": "Point", "coordinates": [ -7.544, 33.581 ] } },
{ "type": "Feature", "properties": { "osm_id": 2163661965.0, "code": 5601.0, "fclass": "railway_station", "name": "Gare de Mechraa Bel Ksiri" }, "geometry": { "type": "Point", "coordinates": [ -5.961, 34.577 ] } },
{ "type": "Feature", "properties": { "osm_id": 2180606203.0, "code": 5621.0, "fclass": "bus_stop", "name": "Municipalité Daroua" }, "geometry": { "type": "Point", "coordinates": [ -7.538, 33.385 ] } },
{ "type": "Feature", "properties": { "osm_id": 2180606216.0, "code": 5621.0, "fclass": "bus_stop", "name": "Municipalité Nouaceur" }, "geometry": { "type": "Point", "coordinates": [ -7.548, 33.373 ] } },
{ "type": "Feature", "properties": { "osm_id": 2180731298.0, "code": 5601.0, "fclass": "railway_station", "name": "Selouane سلوان" }, "geometry": { "type": "Point", "coordinates": [ -2.94, 35.05 ] } },
{ "type": "Feature", "properties": { "osm_id": 2186506135.0, "code": 5621.0, "fclass": "bus_stop", "name": "Pâtisserie La Pensée" }, "geometry": { "type": "Point", "coordinates": [ -7.654, 33.58 ] } },
{ "type": "Feature", "properties": { "osm_id": 2186506441.0, "code": 5621.0, "fclass": "bus_stop", "name": "Café Bouchiki" }, "geometry": { "type": "Point", "coordinates": [ -7.676, 33.572 ] } },
{ "type": "Feature", "properties": { "osm_id": 2186528781.0, "code": 5621.0, "fclass": "bus_stop", "name": "Sté. Sinfa" }, "geometry": { "type": "Point", "coordinates": [ -7.519, 33.57 ] } },
{ "type": "Feature", "properties": { "osm_id": 2187370052.0, "code": 5621.0, "fclass": "bus_stop", "name": "Hay Drissia" }, "geometry": { "type": "Point", "coordinates": [ -7.588, 33.566 ] } },
{ "type": "Feature", "properties": { "osm_id": 2187370068.0, "code": 5621.0, "fclass": "bus_stop", "name": "Centre Feminin" },